[{"id": "2402667", "name": "KILLINEK", "province": "QC", "lat": 60.416666666666664, "lon": -64.85}, {"id": "2402681", "name": "LAKE HARBOUR", "province": "QC", "lat": 62.833333333333336, "lon": -69.91666666666667}, {"id": "2403600", "name": "RESOLUTION ISLAND", "province": "QC", "lat": 61.3, "lon": -64.88333333333334}, {"id": "2403602", "name": "RESOLUTION ISLAND", "province": "QC", "lat": 61.583333333333336, "lon": -64.65}, {"id": "6072183", "name": "DYMOND ONT HYDRO", "province": "QC", "lat": 47.516666666666666, "lon": -79.68333333333334}, {"id": "6072225", "name": "EARLTON A", "province": "QC", "lat": 47.7, "lon": -79.85}, {"id": "6072325", "name": "ENGLEHART", "province": "QC", "lat": 47.81666666666667, "lon": -79.9}, {"id": "6073138", "name": "HAILEYBURY", "province": "QC", "lat": 47.45, "lon": -79.63333333333334}, {"id": "6073420", "name": "HEASLIP", "province": "QC", "lat": 47.8, "lon": -79.83333333333333}, {"id": "6073600", "name": "HOUND CHUTE", "province": "QC", "lat": 47.3, "lon": -79.7}, {"id": "6074209", "name": "KIRKLAND LAKE", "province": "QC", "lat": 48.15, "lon": -80.0}, {"id": "6075379", "name": "MONTREAL RIVER", "province": "QC", "lat": 47.11666666666667, "lon": -79.48333333333333}, {"id": "6075594", "name": "NEW LISKEARD", "province": "QC", "lat": 47.5, "lon": -79.66666666666667}, {"id": "6079068", "name": "UPPER NOTCH", "province": "QC", "lat": 47.25, "lon": -79.58333333333333}, {"id": "6080HB6", "name": "BONFIELD", "province": "QC", "lat": 46.21666666666667, "lon": -79.13333333333334}, {"id": "6080189", "name": "ALGONQUIN PARK", "province": "QC", "lat": 45.583333333333336, "lon": -78.55}, {"id": "6080191", "name": "ALGONQUIN PARK EAST", "province": "QC", "lat": 45.53333333333333, "lon": -78.26666666666667}, {"id": "6080193", "name": "ALGONQUIN PARK WEST", "province": "QC", "lat": 45.333333333333336, "lon": -78.85}, {"id": "6081928", "name": "CRYSTAL FALLS", "province": "QC", "lat": 46.45, "lon": -79.86666666666666}, {"id": "6082178", "name": "DWIGHT", "province": "QC", "lat": 45.38333333333333, "lon": -78.9}, {"id": "6084278", "name": "LA CAVE", "province": "QC", "lat": 46.36666666666667, "lon": -78.73333333333333}, {"id": "6084300", "name": "LAKE OPEONGO", "province": "QC", "lat": 45.63333333333333, "lon": -78.36666666666666}, {"id": "6084307", "name": "LAKE TRAVERSE", "province": "QC", "lat": 45.95, "lon": -78.06666666666666}, {"id": "6084770", "name": "MADAWASKA", "province": "QC", "lat": 45.5, "lon": -77.98333333333333}, {"id": "6085023", "name": "MATTAWA", "province": "QC", "lat": 46.25, "lon": -78.68333333333334}, {"id": "6085682", "name": "NORTH BAY", "province": "QC", "lat": 46.31666666666667, "lon": -79.46666666666667}, {"id": "6085700", "name": "NORTH BAY A", "province": "QC", "lat": 46.36361111111111, "lon": -79.42277777777778}, {"id": "6085704", "name": "NORTH BAY OWRC", "province": "QC", "lat": 46.3, "lon": -79.46666666666667}, {"id": "6087255", "name": "RUTHERGLEN", "province": "QC", "lat": 46.25, "lon": -79.06666666666666}, {"id": "6088144", "name": "STURGEON FALLS", "province": "QC", "lat": 46.36666666666667, "lon": -79.93333333333334}, {"id": "6088271", "name": "TIMAGAMI", "province": "QC", "lat": 47.083333333333336, "lon": -79.85}, {"id": "610E061", "name": "MERIVALE TS", "province": "QC", "lat": 45.333333333333336, "lon": -75.73333333333333}, {"id": "610FLPR", "name": "PERTH", "province": "QC", "lat": 44.916666666666664, "lon": -76.28333333333333}, {"id": "610F3Q0", "name": "PERTH", "province": "QC", "lat": 44.88333333333333, "lon": -76.2}, {"id": "6100172", "name": "ALFRED", "province": "QC", "lat": 45.55, "lon": -74.88333333333334}, {"id": "6100174", "name": "ALFRED AUTOMATIC CLIMATE STATION", "province": "QC", "lat": 45.55, "lon": -74.88333333333334}, {"id": "6100226", "name": "ALMONTE", "province": "QC", "lat": 45.18333333333333, "lon": -76.23333333333333}, {"id": "6100284", "name": "APPLE HILL", "province": "QC", "lat": 45.21666666666667, "lon": -74.75}, {"id": "6100310", "name": "ARDEN", "province": "QC", "lat": 44.7, "lon": -76.95}, {"id": "6100340", "name": "ARNPRIOR", "province": "QC", "lat": 45.43333333333333, "lon": -76.38333333333334}, {"id": "6100345", "name": "ARNPRIOR GRANDON", "province": "QC", "lat": 45.416666666666664, "lon": -76.36666666666666}, {"id": "6100353", "name": "ASHTON", "province": "QC", "lat": 45.2, "lon": -75.96666666666667}, {"id": "6100363", "name": "ASHTON STN SESIA FARM", "province": "QC", "lat": 45.166666666666664, "lon": -76.06666666666666}, {"id": "6100375", "name": "ATHENS", "province": "QC", "lat": 44.65, "lon": -75.91666666666667}, {"id": "6100398", "name": "AVONMORE", "province": "QC", "lat": 45.17001166666667, "lon": -74.97084}, {"id": "6100493", "name": "BARK LAKE DAM", "province": "QC", "lat": 45.416666666666664, "lon": -77.8}, {"id": "6100521", "name": "BARRETT CHUTE", "province": "QC", "lat": 45.25, "lon": -76.76666666666667}, {"id": "6100558", "name": "BARRY'S BAY", "province": "QC", "lat": 45.43333333333333, "lon": -77.66666666666667}, {"id": "6100720", "name": "BELLROCK", "province": "QC", "lat": 44.483333333333334, "lon": -76.76666666666667}, {"id": "6100828", "name": "BOURGET", "province": "QC", "lat": 45.46666666666667, "lon": -75.16666666666667}, {"id": "6100969", "name": "BROCKVILLE", "province": "QC", "lat": 44.6, "lon": -75.7}, {"id": "6100971", "name": "BROCKVILLE PCC", "province": "QC", "lat": 44.6, "lon": -75.66666666666667}, {"id": "6101077", "name": "CALABOGIE", "province": "QC", "lat": 45.25, "lon": -76.73333333333333}, {"id": "6101200", "name": "CARDINAL", "province": "QC", "lat": 44.8, "lon": -75.36666666666666}, {"id": "6101249", "name": "CARLETON PLACE", "province": "QC", "lat": 45.15, "lon": -76.16666666666667}, {"id": "6101250", "name": "CARLETON PLACE", "province": "QC", "lat": 45.15, "lon": -76.2}, {"id": "6101260", "name": "CARP", "province": "QC", "lat": 45.3, "lon": -75.98333333333333}, {"id": "6101265", "name": "CATARAQUI TS", "province": "QC", "lat": 44.36666666666667, "lon": -76.61666666666666}, {"id": "6101335", "name": "CHALK RIVER AECL", "province": "QC", "lat": 46.05, "lon": -77.36666666666666}, {"id": "6101440", "name": "CHATS FALLS", "province": "QC", "lat": 45.46666666666667, "lon": -76.23333333333333}, {"id": "6101494", "name": "CHENAUX", "province": "QC", "lat": 45.583333333333336, "lon": -76.68333333333334}, {"id": "6101500", "name": "CHESTERVILLE", "province": "QC", "lat": 45.1, "lon": -75.23333333333333}, {"id": "6101502", "name": "CHESTERVILLE 2", "province": "QC", "lat": 45.016666666666666, "lon": -75.2}, {"id": "6101521", "name": "CITY VIEW", "province": "QC", "lat": 45.35, "lon": -75.73333333333333}, {"id": "6101555", "name": "CLAYBANK", "province": "QC", "lat": 45.416666666666664, "lon": -76.4}, {"id": "6101658", "name": "CLONTARF", "province": "QC", "lat": 45.38333333333333, "lon": -77.15}, {"id": "6101675", "name": "COBDEN ONTARIO HYDRO", "province": "QC", "lat": 45.63333333333333, "lon": -76.86666666666666}, {"id": "6101820", "name": "COMBERMERE", "province": "QC", "lat": 45.36666666666667, "lon": -77.61666666666666}, {"id": "6101872", "name": "CORNWALL", "province": "QC", "lat": 45.016666666666666, "lon": -74.73333333333333}, {"id": "6101873", "name": "CORNWALL", "province": "QC", "lat": 45.03333333333333, "lon": -74.7}, {"id": "6101874", "name": "CORNWALL", "province": "QC", "lat": 45.01557833333333, "lon": -74.7489}, {"id": "6101880", "name": "CORNWALL COLLEGE", "province": "QC", "lat": 45.03333333333333, "lon": -74.71666666666667}, {"id": "6101885", "name": "CORNWALL CUMBERLAND ST", "province": "QC", "lat": 45.05, "lon": -74.75}, {"id": "6101901", "name": "CORNWALL ONT HYDRO", "province": "QC", "lat": 45.03333333333333, "lon": -74.8}, {"id": "6101909", "name": "CORNWALL ST LHS", "province": "QC", "lat": 45.03333333333333, "lon": -74.71666666666667}, {"id": "6101920", "name": "CROW LAKE", "province": "QC", "lat": 44.733333333333334, "lon": -76.6}, {"id": "6101935", "name": "CUMBERLAND", "province": "QC", "lat": 45.5, "lon": -75.45}, {"id": "6101943", "name": "DACRE", "province": "QC", "lat": 45.38333333333333, "lon": -76.91666666666667}, {"id": "6101955", "name": "DALHOUSIE L HIGH FALLS", "province": "QC", "lat": 44.96666666666667, "lon": -76.61666666666666}, {"id": "6101958", "name": "DALHOUSIE MILLS", "province": "QC", "lat": 45.31666666666667, "lon": -74.46666666666667}, {"id": "6101960", "name": "DALKEITH", "province": "QC", "lat": 45.43333333333333, "lon": -74.61666666666666}, {"id": "6101962", "name": "DALKEITH PYM", "province": "QC", "lat": 45.43333333333333, "lon": -74.58333333333333}, {"id": "6101986", "name": "DELTA", "province": "QC", "lat": 44.61666666666667, "lon": -76.13333333333334}, {"id": "6102J13", "name": "DRUMMOND CENTRE", "province": "QC", "lat": 45.032245, "lon": -76.252805}, {"id": "6102009", "name": "DES JOACHIMS", "province": "QC", "lat": 46.18333333333333, "lon": -77.7}, {"id": "6102054", "name": "DOMVILLE", "province": "QC", "lat": 44.78333333333333, "lon": -75.53333333333333}, {"id": "6102150", "name": "DUNROBIN", "province": "QC", "lat": 45.43333333333333, "lon": -76.03333333333333}, {"id": "6102153", "name": "DUNVEGAN", "province": "QC", "lat": 45.333333333333336, "lon": -74.78333333333333}, {"id": "6102250", "name": "EGANVILLE", "province": "QC", "lat": 45.55, "lon": -77.1}, {"id": "6102417", "name": "FITZROY HARBOUR", "province": "QC", "lat": 45.46666666666667, "lon": -76.21666666666667}, {"id": "6102516", "name": "FOURNIER", "province": "QC", "lat": 45.43333333333333, "lon": -74.9}, {"id": "6102531", "name": "FOYMOUNT", "province": "QC", "lat": 45.333333333333336, "lon": -77.3}, {"id": "6102662", "name": "GANANOQUE", "province": "QC", "lat": 44.31666666666667, "lon": -76.2}, {"id": "6102808", "name": "GLENBURNIE", "province": "QC", "lat": 44.333333333333336, "lon": -76.5}, {"id": "6102832", "name": "GLEN GORDON", "province": "QC", "lat": 45.166666666666664, "lon": -74.53333333333333}, {"id": "6102839", "name": "GLOUCESTER DESJARDINS", "province": "QC", "lat": 45.333333333333336, "lon": -75.5}, {"id": "6102840", "name": "GLOUCESTER KETTLES", "province": "QC", "lat": 45.35, "lon": -75.55}, {"id": "6102841", "name": "GLOUCESTER RCN", "province": "QC", "lat": 45.3, "lon": -75.51666666666667}, {"id": "6102842", "name": "GLOUCESTER TINKER", "province": "QC", "lat": 45.35, "lon": -75.46666666666667}, {"id": "6102857", "name": "GODFREY", "province": "QC", "lat": 44.56666666666667, "lon": -76.63333333333334}, {"id": "6103006", "name": "GREENFIELD", "province": "QC", "lat": 45.35, "lon": -74.66666666666667}, {"id": "6103366", "name": "HARROWSMITH BRACKEN", "province": "QC", "lat": 44.38333333333333, "lon": -76.7}, {"id": "6103367", "name": "HARTINGTON IHD", "province": "QC", "lat": 44.428063333333334, "lon": -76.69030166666667}, {"id": "6103390", "name": "HAWKESBURY", "province": "QC", "lat": 45.61666666666667, "lon": -74.63333333333334}, {"id": "6103470", "name": "HINCHINBROOKE", "province": "QC", "lat": 44.583333333333336, "lon": -76.68333333333334}, {"id": "6104JK5", "name": "KILLALOE STATION", "province": "QC", "lat": 45.483333333333334, "lon": -77.5}, {"id": "6104025", "name": "KEMPTVILLE", "province": "QC", "lat": 45.0, "lon": -75.63333333333334}, {"id": "61041BE", "name": "KILLALOE O'GRADY", "province": "QC", "lat": 45.5, "lon": -77.48333333333333}, {"id": "6104125", "name": "KILLALOE", "province": "QC", "lat": 45.56666666666667, "lon": -77.41666666666667}, {"id": "6104145", "name": "KINGSTON", "province": "QC", "lat": 44.25, "lon": -76.5}, {"id": "6104146", "name": "KINGSTON A", "province": "QC", "lat": 44.21863666666667, "lon": -76.59666888888889}, {"id": "6104147", "name": "KINGSTON BEVERLEY ST", "province": "QC", "lat": 44.21666666666667, "lon": -76.5}, {"id": "6104153", "name": "KINGSTON MARINE", "province": "QC", "lat": 44.233333333333334, "lon": -76.45}, {"id": "6104160", "name": "KINGSTON N & C GAS", "province": "QC", "lat": 44.233333333333334, "lon": -76.56666666666666}, {"id": "6104165", "name": "KINGSTON ONT HYDRO", "province": "QC", "lat": 44.266666666666666, "lon": -76.5}, {"id": "6104175", "name": "KINGSTON PUMPING STATION", "province": "QC", "lat": 44.243903333333336, "lon": -76.48056666666666}, {"id": "6104185", "name": "KINGSTON QUEENS U", "province": "QC", "lat": 44.25, "lon": -76.5}, {"id": "6104293", "name": "LAGGAN", "province": "QC", "lat": 45.38333333333333, "lon": -74.71666666666667}, {"id": "6104340", "name": "LANCASTER", "province": "QC", "lat": 45.15, "lon": -74.46666666666667}, {"id": "6104347", "name": "LANSDOWNE", "province": "QC", "lat": 44.5, "lon": -76.03333333333333}, {"id": "6104348", "name": "LANSDOWNE", "province": "QC", "lat": 44.4, "lon": -76.0}, {"id": "6104400", "name": "LEONARD", "province": "QC", "lat": 45.38333333333333, "lon": -75.31666666666666}, {"id": "6104723", "name": "LYN", "province": "QC", "lat": 44.583333333333336, "lon": -75.78333333333333}, {"id": "6104725", "name": "LYNDHURST SHAWMERE", "province": "QC", "lat": 44.516666666666666, "lon": -76.08333333333333}, {"id": "6104733", "name": "MACCUE", "province": "QC", "lat": 44.88333333333333, "lon": -76.16666666666667}, {"id": "6104840", "name": "MAITLAND", "province": "QC", "lat": 44.63333333333333, "lon": -75.63333333333334}, {"id": "6104880", "name": "MALLORYTOWN GRAHAM LAKE", "province": "QC", "lat": 44.56666666666667, "lon": -75.88333333333334}, {"id": "6104882", "name": "MALLORYTOWN LANDING", "province": "QC", "lat": 44.45, "lon": -75.86666666666666}, {"id": "6104931", "name": "MANOTICK", "province": "QC", "lat": 45.233333333333334, "lon": -75.68333333333334}, {"id": "6104932", "name": "MANOTICK", "province": "QC", "lat": 45.233333333333334, "lon": -75.7}, {"id": "6105010", "name": "MATAWATCHAN", "province": "QC", "lat": 45.13333333333333, "lon": -77.11666666666666}, {"id": "6105061", "name": "MERIVALE CDA", "province": "QC", "lat": 45.3, "lon": -75.73333333333333}, {"id": "6105066", "name": "METCALFE OSGOODE", "province": "QC", "lat": 45.233333333333334, "lon": -75.46666666666667}, {"id": "6105262", "name": "MONTAGUE", "province": "QC", "lat": 44.93333333333333, "lon": -75.95}, {"id": "6105395", "name": "MOOSE CREEK", "province": "QC", "lat": 45.25, "lon": -75.03333333333333}, {"id": "6105460", "name": "MORRISBURG", "province": "QC", "lat": 44.92361833333333, "lon": -75.18834333333334}, {"id": "6105512", "name": "MOUNT ST PATRICK", "province": "QC", "lat": 45.333333333333336, "lon": -76.88333333333334}, {"id": "6105576", "name": "NAVAN", "province": "QC", "lat": 45.43333333333333, "lon": -75.51666666666667}, {"id": "6105678", "name": "NORTH AUGUSTA", "province": "QC", "lat": 44.75, "lon": -75.78333333333333}, {"id": "6105679", "name": "NORTH AUGUSTA MAHONEY", "province": "QC", "lat": 44.733333333333334, "lon": -75.73333333333333}, {"id": "6105709", "name": "NORTH GOWER", "province": "QC", "lat": 45.13333333333333, "lon": -75.71666666666667}, {"id": "6105832", "name": "ORLEANS VEH PRVG GND", "province": "QC", "lat": 45.45, "lon": -75.56666666666666}, {"id": "6105887", "name": "OTTAWA", "province": "QC", "lat": 45.4, "lon": -75.71666666666667}, {"id": "6105910", "name": "OTTAWA ALBION RD", "province": "QC", "lat": 45.333333333333336, "lon": -75.63333333333334}, {"id": "6105913", "name": "OTTAWA ALTA VISTA", "province": "QC", "lat": 45.38333333333333, "lon": -75.75}, {"id": "6105938", "name": "OTTAWA BECKWITH RD", "province": "QC", "lat": 45.4, "lon": -75.66666666666667}, {"id": "6105950", "name": "OTTAWA BILLINGS BRIDGE", "province": "QC", "lat": 45.35, "lon": -75.65}, {"id": "6105960", "name": "OTTAWA BRITANNIA", "province": "QC", "lat": 45.36666666666667, "lon": -75.8}, {"id": "6105976", "name": "OTTAWA CDA", "province": "QC", "lat": 45.38333333333333, "lon": -75.71666666666667}, {"id": "6105980", "name": "OTTAWA CITY HALL", "province": "QC", "lat": 45.43333333333333, "lon": -75.7}, {"id": "6105993", "name": "OTTAWA HAZELDEAN", "province": "QC", "lat": 45.31666666666667, "lon": -75.9}, {"id": "6105995", "name": "OTTAWA HOGS BACK", "province": "QC", "lat": 45.36666666666667, "lon": -75.68333333333334}, {"id": "6106000", "name": "OTTAWA MACDONALD-CARTIER INT'L A", "province": "QC", "lat": 45.3225, "lon": -75.66916666666667}, {"id": "6106003", "name": "OTTAWA KANATA", "province": "QC", "lat": 45.333333333333336, "lon": -75.91666666666667}, {"id": "6106014", "name": "OTTAWA LA SALLE ACAD", "province": "QC", "lat": 45.43333333333333, "lon": -75.7}, {"id": "6106052", "name": "OTTAWA LEMIEUX ISLAND", "province": "QC", "lat": 45.416666666666664, "lon": -75.73333333333333}, {"id": "6106080", "name": "OTTAWA NEPEAN", "province": "QC", "lat": 45.38333333333333, "lon": -75.75}, {"id": "6106090", "name": "OTTAWA NRC", "province": "QC", "lat": 45.45, "lon": -75.61666666666666}, {"id": "6106098", "name": "OTTAWA RIDEAU WARD", "province": "QC", "lat": 45.4, "lon": -75.63333333333334}, {"id": "6106100", "name": "OTTAWA ROCKCLIFFE A", "province": "QC", "lat": 45.45, "lon": -75.63333333333334}, {"id": "6106102", "name": "OTTAWA SOUTH MARCH", "province": "QC", "lat": 45.35, "lon": -75.93333333333334}, {"id": "6106105", "name": "OTTAWA U OF O", "province": "QC", "lat": 45.416666666666664, "lon": -75.68333333333334}, {"id": "6106123", "name": "OUTLET", "province": "QC", "lat": 44.483333333333334, "lon": -76.05}, {"id": "6106362", "name": "PEMBROKE EDDY MATCH", "province": "QC", "lat": 45.833333333333336, "lon": -77.15}, {"id": "6106365", "name": "PEMBROKE FORESTRY STN", "province": "QC", "lat": 45.8, "lon": -77.18333333333334}, {"id": "6106378", "name": "PERCH LAKE MAIN IHD", "province": "QC", "lat": 46.06666666666667, "lon": -77.63333333333334}, {"id": "6106385", "name": "PERTH ONTARIO HYDRO", "province": "QC", "lat": 44.916666666666664, "lon": -76.26666666666667}, {"id": "6106398", "name": "PETAWAWA A", "province": "QC", "lat": 45.95, "lon": -77.31666666666666}, {"id": "6106400", "name": "PETAWAWA NAT FORESTRY", "province": "QC", "lat": 45.983333333333334, "lon": -77.43333333333334}, {"id": "6106660", "name": "PORT ELMSLEY", "province": "QC", "lat": 44.88333333333333, "lon": -76.13333333333334}, {"id": "6106677", "name": "PORTLAND", "province": "QC", "lat": 44.7, "lon": -76.2}, {"id": "6106779", "name": "PURDY", "province": "QC", "lat": 45.31666666666667, "lon": -77.71666666666667}, {"id": "6106874", "name": "RAMSAYVILLE CRF", "province": "QC", "lat": 45.416666666666664, "lon": -75.55}, {"id": "61070AA", "name": "RICHMOND", "province": "QC", "lat": 45.15, "lon": -75.9}, {"id": "6107002", "name": "RENFREW", "province": "QC", "lat": 45.483333333333334, "lon": -76.7}, {"id": "6107003", "name": "RENFREW", "province": "QC", "lat": 45.43333333333333, "lon": -76.65}, {"id": "6107004", "name": "RENFREW SAND POINT", "province": "QC", "lat": 45.483333333333334, "lon": -76.43333333333334}, {"id": "6107010", "name": "RICHMOND", "province": "QC", "lat": 45.166666666666664, "lon": -75.78333333333333}, {"id": "6107011", "name": "RICHMOND", "province": "QC", "lat": 45.18333333333333, "lon": -75.85}, {"id": "6107017", "name": "RIDEAU CANAL BOBS LAKE", "province": "QC", "lat": 44.733333333333334, "lon": -76.6}, {"id": "6107031", "name": "RIDEAU C BURRITS RAPIDS", "province": "QC", "lat": 44.983333333333334, "lon": -75.8}, {"id": "6107045", "name": "RIDEAU CANAL JONES FALLS", "province": "QC", "lat": 44.55, "lon": -76.23333333333333}, {"id": "6107059", "name": "RIDEAU CANAL KILMARNOCK", "province": "QC", "lat": 44.88333333333333, "lon": -75.93333333333334}, {"id": "6107073", "name": "RIDEAU CANAL LONG ISLAND", "province": "QC", "lat": 45.25, "lon": -75.7}, {"id": "6107087", "name": "RIDEAU CANAL NARROWS", "province": "QC", "lat": 44.7, "lon": -76.3}, {"id": "6107096", "name": "RIDEAU CANAL PERTH", "province": "QC", "lat": 44.9, "lon": -76.25}, {"id": "6107105", "name": "RIDEAU CANAL UPP BREWERS", "province": "QC", "lat": 44.416666666666664, "lon": -76.31666666666666}, {"id": "6107119", "name": "RIDEAU CANAL WOLFE LAKE", "province": "QC", "lat": 44.6, "lon": -76.4}, {"id": "6107133", "name": "RIDEAU FERRY", "province": "QC", "lat": 44.85, "lon": -76.15}, {"id": "6107182", "name": "ROLPHTON", "province": "QC", "lat": 46.18333333333333, "lon": -77.65}, {"id": "6107184", "name": "ROLPHTON NPD", "province": "QC", "lat": 46.18333333333333, "lon": -77.66666666666667}, {"id": "6107247", "name": "RUSSELL", "province": "QC", "lat": 45.26278, "lon": -75.35945333333333}, {"id": "6107276", "name": "ST. ALBERT", "province": "QC", "lat": 45.28722333333333, "lon": -75.06361833333334}, {"id": "6107310", "name": "ST ELMO", "province": "QC", "lat": 45.31666666666667, "lon": -74.85}, {"id": "6107352", "name": "ST RAPHAEL", "province": "QC", "lat": 45.21666666666667, "lon": -74.58333333333333}, {"id": "6107533", "name": "SARSFIELD", "province": "QC", "lat": 45.43333333333333, "lon": -75.35}, {"id": "6107699", "name": "SHIRLEY BAY", "province": "QC", "lat": 45.35, "lon": -75.88333333333334}, {"id": "6107834", "name": "SMITHS FALLS", "province": "QC", "lat": 44.916666666666664, "lon": -76.05}, {"id": "6107835", "name": "SMITHS FALLS WPCP", "province": "QC", "lat": 44.9, "lon": -76.0}, {"id": "6107836", "name": "SMITHS FALLS TS", "province": "QC", "lat": 44.88333333333333, "lon": -76.0}, {"id": "6107955", "name": "SOUTH MOUNTAIN", "province": "QC", "lat": 44.96666666666667, "lon": -75.48333333333333}, {"id": "6107971", "name": "SPENCERVILLE", "province": "QC", "lat": 44.85, "lon": -75.55}, {"id": "6108027", "name": "STEWARTVILLE", "province": "QC", "lat": 45.4, "lon": -76.5}, {"id": "6108060", "name": "STONECLIFFE", "province": "QC", "lat": 46.15, "lon": -78.1}, {"id": "6108195", "name": "SYDENHAM", "province": "QC", "lat": 44.4, "lon": -76.58333333333333}, {"id": "6109132", "name": "VANKLEEK HILL", "province": "QC", "lat": 45.516666666666666, "lon": -74.65}, {"id": "6109458", "name": "WESTPORT", "province": "QC", "lat": 44.68333333333333, "lon": -76.41666666666667}, {"id": "6109558", "name": "WOLFE ISLAND", "province": "QC", "lat": 44.15, "lon": -76.53333333333333}, {"id": "6109590", "name": "WOODLAWN", "province": "QC", "lat": 45.5, "lon": -76.1}, {"id": "611C001", "name": "GRAVENHURST BOOTH", "province": "QC", "lat": 44.916666666666664, "lon": -79.4}, {"id": "611KBE0", "name": "EGBERT CARE", "province": "QC", "lat": 44.233333333333334, "lon": -79.78333333333333}, {"id": "611K661", "name": "GAMEBRIDGE", "province": "QC", "lat": 44.516666666666666, "lon": -79.1}, {"id": "6110HK7", "name": "BORDEN STP", "province": "QC", "lat": 44.3, "lon": -79.9}, {"id": "6110216", "name": "ALLISTON", "province": "QC", "lat": 44.15, "lon": -79.85}, {"id": "6110218", "name": "ALLISTON NELSON", "province": "QC", "lat": 44.15139666666666, "lon": -79.87224666666667}, {"id": "6110270", "name": "ANGUS", "province": "QC", "lat": 44.31666666666667, "lon": -79.86666666666666}, {"id": "6110458", "name": "BALA", "province": "QC", "lat": 45.0, "lon": -79.5}, {"id": "6110549", "name": "BARRIE", "province": "QC", "lat": 44.4, "lon": -79.68333333333334}, {"id": "6110555", "name": "BARRIE CKVR", "province": "QC", "lat": 44.35, "lon": -79.7}, {"id": "6110557", "name": "BARRIE WPCC", "province": "QC", "lat": 44.375836666666665, "lon": -79.689725}, {"id": "6110605", "name": "BEATRICE", "province": "QC", "lat": 45.13333333333333, "lon": -79.38333333333334}, {"id": "6110606", "name": "BEATRICE 2", "province": "QC", "lat": 45.13333333333333, "lon": -79.4}, {"id": "6110633", "name": "BEAVERTON", "province": "QC", "lat": 44.416666666666664, "lon": -79.15}, {"id": "6110661", "name": "BEETON", "province": "QC", "lat": 44.1, "lon": -79.78333333333333}, {"id": "6110662", "name": "BEETON ASSAGI", "province": "QC", "lat": 44.11666666666667, "lon": -79.76666666666667}, {"id": "6110663", "name": "BEETON GRAHAM", "province": "QC", "lat": 44.083333333333336, "lon": -79.78333333333333}, {"id": "6110667", "name": "BEETON WATSON", "province": "QC", "lat": 44.06666666666667, "lon": -79.85}, {"id": "6110731", "name": "BIG CHUTE", "province": "QC", "lat": 44.88333333333333, "lon": -79.66666666666667}, {"id": "6110745", "name": "BINGHAM CHUTE", "province": "QC", "lat": 46.083333333333336, "lon": -79.4}, {"id": "6110827", "name": "BORDEN A", "province": "QC", "lat": 44.266666666666666, "lon": -79.93333333333334}, {"id": "6110851", "name": "BRACEBRIDGE", "province": "QC", "lat": 45.05, "lon": -79.31666666666666}, {"id": "6110854", "name": "BRACEBRIDGE ONT HYDRO", "province": "QC", "lat": 45.03333333333333, "lon": -79.3}, {"id": "6110859", "name": "BRADFORD BROWN", "province": "QC", "lat": 44.15, "lon": -79.56666666666666}, {"id": "611095R", "name": "BRECHIN BEACH", "province": "QC", "lat": 44.53333333333333, "lon": -79.2}, {"id": "61110M6", "name": "BURK'S FALLS 2", "province": "QC", "lat": 45.583333333333336, "lon": -79.6}, {"id": "6111045", "name": "BURKS FALLS", "province": "QC", "lat": 45.6, "lon": -79.56666666666666}, {"id": "6111143", "name": "CAMP BORDEN", "province": "QC", "lat": 44.266666666666666, "lon": -79.9}, {"id": "6111145", "name": "CAMP BORDEN A", "province": "QC", "lat": 44.31666666666667, "lon": -79.9}, {"id": "6111375", "name": "CHARLINCH", "province": "QC", "lat": 45.45, "lon": -79.25}, {"id": "6111766", "name": "COLDWATER", "province": "QC", "lat": 44.7, "lon": -79.66666666666667}, {"id": "6111769", "name": "COLDWATER WARMINSTER", "province": "QC", "lat": 44.631121666666665, "lon": -79.538905}, {"id": "6111859", "name": "COOKSTOWN", "province": "QC", "lat": 44.206678333333336, "lon": -79.69474666666666}, {"id": "6111965", "name": "DALRYMPLE LAKE", "province": "QC", "lat": 44.6, "lon": -79.13333333333334}, {"id": "6112070", "name": "DORSET", "province": "QC", "lat": 45.166666666666664, "lon": -78.83333333333333}, {"id": "6112072", "name": "DORSET MOE", "province": "QC", "lat": 45.21666666666667, "lon": -78.93333333333334}, {"id": "6112133", "name": "DUNCHURCH", "province": "QC", "lat": 45.61666666666667, "lon": -79.88333333333334}, {"id": "6112278", "name": "ELMVALE", "province": "QC", "lat": 44.583333333333336, "lon": -79.9}, {"id": "6112313", "name": "EMSDALE", "province": "QC", "lat": 45.5, "lon": -79.23333333333333}, {"id": "6112340", "name": "ESSA ONT HYDRO", "province": "QC", "lat": 44.35, "lon": -79.81666666666666}, {"id": "6112410", "name": "FESSERTON", "province": "QC", "lat": 44.733333333333334, "lon": -79.68333333333334}, {"id": "6112775", "name": "GILFORD", "province": "QC", "lat": 44.21666666666667, "lon": -79.55}, {"id": "6112778", "name": "GILFORD", "province": "QC", "lat": 44.2, "lon": -79.56666666666666}, {"id": "6113000", "name": "GRAVENHURST", "province": "QC", "lat": 44.916666666666664, "lon": -79.36666666666666}, {"id": "6113358", "name": "HARP LAKE", "province": "QC", "lat": 45.38333333333333, "lon": -79.11666666666666}, {"id": "6113479", "name": "HOLLY", "province": "QC", "lat": 44.31666666666667, "lon": -79.71666666666667}, {"id": "6113490", "name": "HONEY HBR BEAUSOLEIL", "province": "QC", "lat": 44.85, "lon": -79.86666666666666}, {"id": "6113580", "name": "HORSESHOE VALLEY", "province": "QC", "lat": 44.55, "lon": -79.66666666666667}, {"id": "6113660", "name": "HUNTSVILLE", "province": "QC", "lat": 45.31666666666667, "lon": -79.25}, {"id": "6113663", "name": "HUNTSVILLE WPCP", "province": "QC", "lat": 45.35, "lon": -79.16666666666667}, {"id": "6113665", "name": "HUNTSVILLE TAWINGO", "province": "QC", "lat": 45.35, "lon": -79.31666666666666}, {"id": "6114005", "name": "KATRINE", "province": "QC", "lat": 45.583333333333336, "lon": -79.35}, {"id": "6114006", "name": "KATRINE DOE LAKE", "province": "QC", "lat": 45.53333333333333, "lon": -79.4}, {"id": "6114089", "name": "KESWICK", "province": "QC", "lat": 44.21666666666667, "lon": -79.43333333333334}, {"id": "6114805", "name": "MAGNETAWAN", "province": "QC", "lat": 45.666666666666664, "lon": -79.78333333333333}, {"id": "6115099", "name": "MIDHURST", "province": "QC", "lat": 44.45, "lon": -79.76666666666667}, {"id": "6115127", "name": "MIDLAND WATER POLLUTION CONTROL PLANT", "province": "QC", "lat": 44.75779333333333, "lon": -79.87528166666667}, {"id": "6115130", "name": "MIDLAND HURONIA A", "province": "QC", "lat": 44.68333333333333, "lon": -79.93333333333334}, {"id": "6115150", "name": "MILFORD BAY", "province": "QC", "lat": 45.1, "lon": -79.48333333333333}, {"id": "6115525", "name": "MUSKOKA A", "province": "QC", "lat": 44.96666666666667, "lon": -79.3}, {"id": "6115668", "name": "NIPISSING", "province": "QC", "lat": 46.13333333333333, "lon": -79.53333333333333}, {"id": "6115810", "name": "ORILLIA", "province": "QC", "lat": 44.61666666666667, "lon": -79.4}, {"id": "6115818", "name": "ORILLIA STP", "province": "QC", "lat": 44.583333333333336, "lon": -79.4}, {"id": "6115820", "name": "ORILLIA TS", "province": "QC", "lat": 44.61666666666667, "lon": -79.41666666666667}, {"id": "6115850", "name": "ORO", "province": "QC", "lat": 44.516666666666666, "lon": -79.58333333333333}, {"id": "6115856", "name": "ORO WAM", "province": "QC", "lat": 44.516666666666666, "lon": -79.45}, {"id": "6116254", "name": "PARRY SOUND", "province": "QC", "lat": 45.333333333333336, "lon": -80.0}, {"id": "6116308", "name": "PEFFERLAW", "province": "QC", "lat": 44.31666666666667, "lon": -79.21666666666667}, {"id": "6116309", "name": "PEFFERLAW", "province": "QC", "lat": 44.333333333333336, "lon": -79.21666666666667}, {"id": "6116702", "name": "POWASSAN", "province": "QC", "lat": 46.11666666666667, "lon": -79.25}, {"id": "6116703", "name": "POWASSAN VALLEYVIEW", "province": "QC", "lat": 46.083333333333336, "lon": -79.35}, {"id": "6116843", "name": "RAGGED RAPIDS", "province": "QC", "lat": 45.016666666666666, "lon": -79.68333333333334}, {"id": "6116902", "name": "RAVENSHOE", "province": "QC", "lat": 44.21666666666667, "lon": -79.4}, {"id": "6117167", "name": "ROBERTS LAKE", "province": "QC", "lat": 45.233333333333334, "lon": -79.81666666666666}, {"id": "6117186", "name": "RONVILLE", "province": "QC", "lat": 45.25, "lon": -78.95}, {"id": "6117189", "name": "ROSSEAU LAKE", "province": "QC", "lat": 45.25, "lon": -79.63333333333334}, {"id": "6117663", "name": "SCOTIA", "province": "QC", "lat": 45.516666666666666, "lon": -79.3}, {"id": "6117682", "name": "SEVERN BRIDGE", "province": "QC", "lat": 44.766666666666666, "lon": -79.33333333333333}, {"id": "6117684", "name": "SHANTY BAY", "province": "QC", "lat": 44.399458333333335, "lon": -79.63279833333333}, {"id": "6117943", "name": "SOUTH FALLS", "province": "QC", "lat": 45.0, "lon": -79.3}, {"id": "6117957", "name": "SOUTH RIVER", "province": "QC", "lat": 45.833333333333336, "lon": -79.38333333333334}, {"id": "6118142", "name": "STROUD LEONARDS BEACH", "province": "QC", "lat": 44.333333333333336, "lon": -79.53333333333333}, {"id": "6118187", "name": "SUTTON WEST", "province": "QC", "lat": 44.31666666666667, "lon": -79.3}, {"id": "6118258", "name": "THORNTON", "province": "QC", "lat": 44.28333333333333, "lon": -79.68333333333334}, {"id": "6118848", "name": "TOTTENHAM", "province": "QC", "lat": 44.03333333333333, "lon": -79.81666666666666}, {"id": "6118849", "name": "TOTTENHAM PEARSON", "province": "QC", "lat": 44.016666666666666, "lon": -79.8}, {"id": "6118920", "name": "TRETHEWEY FALLS", "province": "QC", "lat": 44.983333333333334, "lon": -79.28333333333333}, {"id": "6118938", "name": "TROUT CREEK", "province": "QC", "lat": 46.03333333333333, "lon": -79.38333333333334}, {"id": "6119055", "name": "UDORA", "province": "QC", "lat": 44.2625, "lon": -79.16139}, {"id": "6119064", "name": "UPLANDS", "province": "QC", "lat": 45.8, "lon": -79.41666666666667}, {"id": "61191LK", "name": "VANKOUGHNET", "province": "QC", "lat": 45.03333333333333, "lon": -79.0}, {"id": "6119115", "name": "UTTERSON ONT HYDRO", "province": "QC", "lat": 45.2, "lon": -79.35}, {"id": "6119129", "name": "VALLENTYNE", "province": "QC", "lat": 44.266666666666666, "lon": -79.16666666666667}, {"id": "6119295", "name": "WASDELLS", "province": "QC", "lat": 44.78333333333333, "lon": -79.3}, {"id": "6119325", "name": "WASHAGO", "province": "QC", "lat": 44.75, "lon": -79.33333333333333}, {"id": "6119399", "name": "WAUBAUSHENE", "province": "QC", "lat": 44.766666666666666, "lon": -79.7}, {"id": "6119668", "name": "WYEVALE", "province": "QC", "lat": 44.65, "lon": -79.91666666666667}, {"id": "615EMR7", "name": "MOUNTAINVIEW", "province": "QC", "lat": 44.05197, "lon": -77.30169166666667}, {"id": "615J02G", "name": "BRUCES MILL", "province": "QC", "lat": 44.0, "lon": -79.33333333333333}, {"id": "615NNPL", "name": "NAPANEE", "province": "QC", "lat": 44.233333333333334, "lon": -76.96666666666667}, {"id": "615N619", "name": "NEWMARKET 2", "province": "QC", "lat": 44.03333333333333, "lon": -79.4}, {"id": "6150396", "name": "AURORA MOE", "province": "QC", "lat": 44.016666666666666, "lon": -79.46666666666667}, {"id": "6150460", "name": "BALLANTRAE", "province": "QC", "lat": 44.05, "lon": -79.3}, {"id": "6150689", "name": "BELLEVILLE", "province": "QC", "lat": 44.15057, "lon": -77.394735}, {"id": "6150700", "name": "BELLEVILLE OWRC", "province": "QC", "lat": 44.166666666666664, "lon": -77.36666666666666}, {"id": "6150717", "name": "BELLEVILLE PAR LAB", "province": "QC", "lat": 44.166666666666664, "lon": -77.35}, {"id": "6150857", "name": "BRADFORD", "province": "QC", "lat": 44.1, "lon": -79.5}, {"id": "6150858", "name": "BRADFORD 2", "province": "QC", "lat": 44.11666666666667, "lon": -79.53333333333333}, {"id": "6150860", "name": "BRADFORD HIGH SCHOOL", "province": "QC", "lat": 44.11666666666667, "lon": -79.5}, {"id": "6150863", "name": "BRADFORD MUCK RESEARCH", "province": "QC", "lat": 44.03333333333333, "lon": -79.6}, {"id": "6150865", "name": "BRADFORD OAC", "province": "QC", "lat": 44.1, "lon": -79.6}, {"id": "6150866", "name": "BRADFORD ODA", "province": "QC", "lat": 44.11666666666667, "lon": -79.55}, {"id": "6150867", "name": "BRADFORD SPRINGDALE", "province": "QC", "lat": 44.03333333333333, "lon": -79.61666666666666}, {"id": "6150961", "name": "BRIGHTON", "province": "QC", "lat": 44.06666666666667, "lon": -77.73333333333333}, {"id": "6151042", "name": "BURKETON MCLAUGHLIN", "province": "QC", "lat": 44.03333333333333, "lon": -78.8}, {"id": "6151135", "name": "CAMPBELLCROFT", "province": "QC", "lat": 44.1, "lon": -78.38333333333334}, {"id": "6151136", "name": "CAMPBELLCROFT GANARASKA", "province": "QC", "lat": 44.06666666666667, "lon": -78.5}, {"id": "6151137", "name": "CAMPBELLFORD", "province": "QC", "lat": 44.3, "lon": -77.8}, {"id": "6151264", "name": "CASTLETON", "province": "QC", "lat": 44.11666666666667, "lon": -77.88333333333334}, {"id": "6151272", "name": "CEDAR VALLEY", "province": "QC", "lat": 44.06666666666667, "lon": -79.36666666666666}, {"id": "6151307", "name": "CENTRETON", "province": "QC", "lat": 44.083333333333336, "lon": -78.06666666666666}, {"id": "6151309", "name": "CENTREVILLE", "province": "QC", "lat": 44.40335833333334, "lon": -76.90780333333333}, {"id": "6151725", "name": "CODRINGTON", "province": "QC", "lat": 44.166666666666664, "lon": -77.8}, {"id": "61519JM", "name": "CRESSY", "province": "QC", "lat": 44.1, "lon": -76.85}, {"id": "6151921", "name": "CROYDON", "province": "QC", "lat": 44.56666666666667, "lon": -77.0}, {"id": "6152007", "name": "DESERONTO", "province": "QC", "lat": 44.18333333333333, "lon": -77.06666666666666}, {"id": "6152555", "name": "FRANKFORD MOE", "province": "QC", "lat": 44.233333333333334, "lon": -77.6}, {"id": "6152663", "name": "GARDEN HILL", "province": "QC", "lat": 44.03333333333333, "lon": -78.4}, {"id": "6152837", "name": "GLENORA RS", "province": "QC", "lat": 44.03333333333333, "lon": -77.05}, {"id": "6152950", "name": "GORES LANDING", "province": "QC", "lat": 44.13333333333333, "lon": -78.21666666666667}, {"id": "6152951", "name": "GORES LANDING", "province": "QC", "lat": 44.083333333333336, "lon": -78.26666666666667}, {"id": "6153357", "name": "HAROLD WILDWOOD", "province": "QC", "lat": 44.38333333333333, "lon": -77.55}, {"id": "6153475", "name": "HOLLAND LANDING", "province": "QC", "lat": 44.1, "lon": -79.48333333333333}, {"id": "6153477", "name": "HOLLAND MARSH", "province": "QC", "lat": 44.11666666666667, "lon": -79.5}, {"id": "6153678", "name": "IDA", "province": "QC", "lat": 44.25, "lon": -78.43333333333334}, {"id": "6153843", "name": "IVANHOE", "province": "QC", "lat": 44.38333333333333, "lon": -77.51666666666667}, {"id": "6153853", "name": "JANETVILLE", "province": "QC", "lat": 44.21666666666667, "lon": -78.63333333333334}, {"id": "6154142", "name": "KING SMOKE TREE", "province": "QC", "lat": 44.016666666666666, "lon": -79.51666666666667}, {"id": "6154410", "name": "LESKARD", "province": "QC", "lat": 44.016666666666666, "lon": -78.65}, {"id": "6154611", "name": "LONG SAULT IHD", "province": "QC", "lat": 44.05, "lon": -78.71666666666667}, {"id": "6154780", "name": "MADOC", "province": "QC", "lat": 44.516666666666666, "lon": -77.46666666666667}, {"id": "6154995", "name": "MARMORA", "province": "QC", "lat": 44.483333333333334, "lon": -77.7}, {"id": "6155071", "name": "MEYERSBURG", "province": "QC", "lat": 44.25, "lon": -77.8}, {"id": "6155154", "name": "MILLBROOK", "province": "QC", "lat": 44.15, "lon": -78.48333333333333}, {"id": "6155450", "name": "MORGANSTON", "province": "QC", "lat": 44.166666666666664, "lon": -77.83333333333333}, {"id": "6155496", "name": "MORVEN IHD", "province": "QC", "lat": 44.25, "lon": -76.85}, {"id": "6155498", "name": "MOUNTAIN VIEW", "province": "QC", "lat": 44.083333333333336, "lon": -77.38333333333334}, {"id": "6155616", "name": "NEWMARKET", "province": "QC", "lat": 44.06666666666667, "lon": -79.43333333333334}, {"id": "6155617", "name": "NEWMARKET CHERRYWOOD", "province": "QC", "lat": 44.06666666666667, "lon": -79.46666666666667}, {"id": "6155619", "name": "NEWMARKET WPCP", "province": "QC", "lat": 44.06666666666667, "lon": -79.43333333333334}, {"id": "6155830", "name": "ORLAND", "province": "QC", "lat": 44.13333333333333, "lon": -77.81666666666666}, {"id": "6156251", "name": "PARMA", "province": "QC", "lat": 44.15, "lon": -76.93333333333334}, {"id": "6156533", "name": "PICTON", "province": "QC", "lat": 44.016666666666666, "lon": -77.13333333333334}, {"id": "6156682", "name": "PORT PERRY NONQUON", "province": "QC", "lat": 44.15, "lon": -78.96666666666667}, {"id": "6156807", "name": "QUEENSVILLE", "province": "QC", "lat": 44.11666666666667, "lon": -79.41666666666667}, {"id": "8402053", "name": "GRAND LAKE", "province": "QC", "lat": 49.083333333333336, "lon": -57.18333333333333}, {"id": "6157672", "name": "SEAGRAVE", "province": "QC", "lat": 44.18333333333333, "lon": -78.93333333333334}, {"id": "6157683", "name": "SHANNONVILLE", "province": "QC", "lat": 44.2, "lon": -77.21666666666667}, {"id": "6157685", "name": "SHARON", "province": "QC", "lat": 44.1, "lon": -79.43333333333334}, {"id": "6157831", "name": "SMITHFIELD CDA", "province": "QC", "lat": 44.083333333333336, "lon": -77.66666666666667}, {"id": "6157832", "name": "SMITHFIELD CDA AUTOMATIC CLIMATE STATION", "province": "QC", "lat": 44.083333333333336, "lon": -77.66666666666667}, {"id": "6158012", "name": "STELLA-AMHERST", "province": "QC", "lat": 44.15, "lon": -76.65}, {"id": "6158050", "name": "STIRLING", "province": "QC", "lat": 44.31666666666667, "lon": -77.63333333333334}, {"id": "6158080", "name": "STOUFFVILLE", "province": "QC", "lat": 44.0, "lon": -79.26666666666667}, {"id": "6158082", "name": "STOUFFVILLE BLUEGRASS", "province": "QC", "lat": 44.0, "lon": -79.2}, {"id": "6158875", "name": "TRENTON A", "province": "QC", "lat": 44.11888888888889, "lon": -77.52805555555555}, {"id": "6158878", "name": "TRENTON DOMTAR", "province": "QC", "lat": 44.11666666666667, "lon": -77.5}, {"id": "6158885", "name": "TRENTON ONT HYDRO", "province": "QC", "lat": 44.13333333333333, "lon": -77.6}, {"id": "6158888", "name": "TRENTON MOE", "province": "QC", "lat": 44.11666666666667, "lon": -77.56666666666666}, {"id": "6159AC0", "name": "VANDORF", "province": "QC", "lat": 44.016666666666666, "lon": -79.35}, {"id": "6159A26", "name": "UXBRIDGE", "province": "QC", "lat": 44.1, "lon": -79.11666666666666}, {"id": "6159010", "name": "TWEED", "province": "QC", "lat": 44.5, "lon": -77.28333333333333}, {"id": "6159019", "name": "TWEED ONTARIO HYDRO", "province": "QC", "lat": 44.5, "lon": -77.31666666666666}, {"id": "6159048", "name": "TYRONE", "province": "QC", "lat": 44.016666666666666, "lon": -78.73333333333333}, {"id": "6159122", "name": "UXBRIDGE", "province": "QC", "lat": 44.083333333333336, "lon": -79.13333333333334}, {"id": "6159124", "name": "UXBRIDGE 2", "province": "QC", "lat": 44.11666666666667, "lon": -79.1}, {"id": "6159125", "name": "UXBRIDGE 3", "province": "QC", "lat": 44.13333333333333, "lon": -79.08333333333333}, {"id": "6159652", "name": "WOOLER", "province": "QC", "lat": 44.15, "lon": -77.7}, {"id": "616C3P9", "name": "HASTINGS", "province": "QC", "lat": 44.28333333333333, "lon": -78.0}, {"id": "616PA87", "name": "ROSEDALE", "province": "QC", "lat": 44.56666666666667, "lon": -78.78333333333333}, {"id": "6160297", "name": "APSLEY", "province": "QC", "lat": 44.766666666666666, "lon": -78.08333333333333}, {"id": "6160465", "name": "BANCROFT", "province": "QC", "lat": 45.05, "lon": -77.85}, {"id": "6160468", "name": "BANCROFT L'AMABLE", "province": "QC", "lat": 45.0, "lon": -77.8}, {"id": "6160473", "name": "BANCROFT OMNR", "province": "QC", "lat": 45.05, "lon": -77.86666666666666}, {"id": "6160820", "name": "BOBCAYGEON", "province": "QC", "lat": 44.516666666666666, "lon": -78.61666666666666}, {"id": "6160822", "name": "BOBCAYGEON", "province": "QC", "lat": 44.583333333333336, "lon": -78.51666666666667}, {"id": "6161050", "name": "BURLEIGH FALLS", "province": "QC", "lat": 44.56666666666667, "lon": -78.21666666666667}, {"id": "6161662", "name": "CLOYNE ONT HYDRO", "province": "QC", "lat": 44.81666666666667, "lon": -77.18333333333334}, {"id": "6161682", "name": "COBOCONK", "province": "QC", "lat": 44.6, "lon": -78.76666666666667}, {"id": "6161739", "name": "COE HILL", "province": "QC", "lat": 44.88333333333333, "lon": -77.83333333333333}, {"id": "6161990", "name": "DENBIGH", "province": "QC", "lat": 45.11666666666667, "lon": -77.25}, {"id": "6162328", "name": "ENNISMORE", "province": "QC", "lat": 44.38333333333333, "lon": -78.45}, {"id": "6162375", "name": "FENELON FALLS", "province": "QC", "lat": 44.53333333333333, "lon": -78.73333333333333}, {"id": "6162376", "name": "FENELON FALLS", "province": "QC", "lat": 44.583333333333336, "lon": -78.75}, {"id": "6162787", "name": "GILMOUR", "province": "QC", "lat": 44.85, "lon": -77.6}, {"id": "6162883", "name": "GOODERHAM", "province": "QC", "lat": 44.916666666666664, "lon": -78.38333333333334}, {"id": "6163156", "name": "HALIBURTON A", "province": "QC", "lat": 45.0, "lon": -78.58333333333333}, {"id": "6163170", "name": "HALIBURTON 2", "province": "QC", "lat": 45.05, "lon": -78.48333333333333}, {"id": "6163171", "name": "HALIBURTON 3", "province": "QC", "lat": 45.032248333333335, "lon": -78.531115}, {"id": "6163677", "name": "HYBLA MARSHALL", "province": "QC", "lat": 45.15, "lon": -77.85}, {"id": "6163872", "name": "JERMYN", "province": "QC", "lat": 44.31666666666667, "lon": -78.16666666666667}, {"id": "6164198", "name": "KINMOUNT", "province": "QC", "lat": 44.75, "lon": -78.63333333333334}, {"id": "6164207", "name": "KIRKFIELD", "province": "QC", "lat": 44.56666666666667, "lon": -78.98333333333333}, {"id": "6164297", "name": "LAKEFIELD", "province": "QC", "lat": 44.46666666666667, "lon": -78.23333333333333}, {"id": "6164430", "name": "LINDSAY", "province": "QC", "lat": 44.35, "lon": -78.75}, {"id": "6164432", "name": "LINDSAY FILTRATION PLANT", "province": "QC", "lat": 44.35, "lon": -78.73333333333333}, {"id": "6164433", "name": "LINDSAY FROST", "province": "QC", "lat": 44.33835333333333, "lon": -78.74027833333334}, {"id": "6164446", "name": "LITTLE BRITAIN", "province": "QC", "lat": 44.21666666666667, "lon": -78.91666666666667}, {"id": "6164615", "name": "LORNEVILLE", "province": "QC", "lat": 44.483333333333334, "lon": -78.95}, {"id": "6165195", "name": "MINDEN", "province": "QC", "lat": 44.93333333333333, "lon": -78.71666666666667}, {"id": "6165197", "name": "MINDEN FORESTRY", "province": "QC", "lat": 44.75, "lon": -78.7}, {"id": "6165716", "name": "NORWOOD", "province": "QC", "lat": 44.38333333333333, "lon": -77.96666666666667}, {"id": "6165880", "name": "OTONABEE", "province": "QC", "lat": 44.333333333333336, "lon": -78.3}, {"id": "6166416", "name": "PETERBOROUGH", "province": "QC", "lat": 44.28333333333333, "lon": -78.31666666666666}, {"id": "6166418", "name": "PETERBOROUGH A", "province": "QC", "lat": 44.233333333333334, "lon": -78.36666666666666}, {"id": "6166425", "name": "PETERBOROUGH CHEX", "province": "QC", "lat": 44.333333333333336, "lon": -78.3}, {"id": "6166428", "name": "PETERBOROUGH DOBBIN TS", "province": "QC", "lat": 44.31666666666667, "lon": -78.4}, {"id": "6166443", "name": "PETERBOROUGH ONT HYDRO", "province": "QC", "lat": 44.333333333333336, "lon": -78.31666666666666}, {"id": "6166450", "name": "PETERBOROUGH STP", "province": "QC", "lat": 44.28333333333333, "lon": -78.31666666666666}, {"id": "6166452", "name": "PETERBOROUGH TORRANCE", "province": "QC", "lat": 44.233333333333334, "lon": -78.31666666666666}, {"id": "6166455", "name": "PETERBOROUGH TRENT U", "province": "QC", "lat": 44.36666666666667, "lon": -78.3}, {"id": "6166800", "name": "QUEENSBORO", "province": "QC", "lat": 44.6, "lon": -77.41666666666667}, {"id": "6168070", "name": "STONY LAKE SANDOR FARM", "province": "QC", "lat": 44.55, "lon": -78.1}, {"id": "6169110", "name": "URSA", "province": "QC", "lat": 44.9, "lon": -78.3}, {"id": "6169453", "name": "WEST GUILFORD", "province": "QC", "lat": 45.1, "lon": -78.68333333333334}, {"id": "6169647", "name": "WOODVILLE", "province": "QC", "lat": 44.4, "lon": -78.98333333333333}, {"id": "6169648", "name": "WOODVILLE", "province": "QC", "lat": 44.4, "lon": -78.9}, {"id": "701A9EC", "name": "DALHOUSIE STATION", "province": "QC", "lat": 45.3, "lon": -74.46666666666667}, {"id": "701A9E0", "name": "COURVILLE DE POISSY", "province": "QC", "lat": 46.88333333333333, "lon": -71.16666666666667}, {"id": "701HE63", "name": "TROIS RIVIERES AQUEDUC", "province": "QC", "lat": 46.38333333333333, "lon": -72.61666666666666}, {"id": "701J9NM", "name": "DE BEAUJEU", "province": "QC", "lat": 45.333333333333336, "lon": -74.33333333333333}, {"id": "701LEEH", "name": "LAC AUX SABLES", "province": "QC", "lat": 46.86666666666667, "lon": -72.4}, {"id": "701LF83", "name": "LA COURVILLOISE", "province": "QC", "lat": 46.9, "lon": -71.15}, {"id": "7010478", "name": "BARRIERE STONEHAM", "province": "QC", "lat": 47.166666666666664, "lon": -71.25}, {"id": "7010480", "name": "BARRIERE TOURILLI", "province": "QC", "lat": 47.166666666666664, "lon": -71.61666666666666}, {"id": "7010566", "name": "BEAUPORT", "province": "QC", "lat": 46.88333333333333, "lon": -71.2}, {"id": "7010720", "name": "BERTHIERVILLE", "province": "QC", "lat": 46.05, "lon": -73.18333333333334}, {"id": "7011045", "name": "CAP DE LA MADELEINE", "province": "QC", "lat": 46.36666666666667, "lon": -72.53333333333333}, {"id": "7011170", "name": "CAP ROUGE", "province": "QC", "lat": 46.766666666666666, "lon": -71.3}, {"id": "7011290", "name": "CHAMPLAIN", "province": "QC", "lat": 46.46666666666667, "lon": -72.33333333333333}, {"id": "7011308", "name": "CHARLESBOURG JAR ZOO", "province": "QC", "lat": 46.9, "lon": -71.3}, {"id": "7011309", "name": "CHARLESBOURG PARC ORLEAN", "province": "QC", "lat": 46.86666666666667, "lon": -71.26666666666667}, {"id": "7011600", "name": "CHUTE PANET", "province": "QC", "lat": 46.86666666666667, "lon": -71.86666666666666}, {"id": "7011760", "name": "CLUB TOURILLI", "province": "QC", "lat": 47.03333333333333, "lon": -71.7}, {"id": "7011800", "name": "CLUB TOURILLI", "province": "QC", "lat": 47.083333333333336, "lon": -71.9}, {"id": "7011947", "name": "COTEAU DU LAC", "province": "QC", "lat": 45.31666666666667, "lon": -74.16666666666667}, {"id": "7011950", "name": "COURVILLE", "province": "QC", "lat": 46.86666666666667, "lon": -71.16666666666667}, {"id": "7011960", "name": "DEPOT JOBIN", "province": "QC", "lat": 47.233333333333334, "lon": -71.63333333333334}, {"id": "7011982", "name": "DESCHAMBAULT", "province": "QC", "lat": 46.666666666666664, "lon": -71.91666666666667}, {"id": "7012070", "name": "DONNACONA", "province": "QC", "lat": 46.666666666666664, "lon": -71.75}, {"id": "7012071", "name": "DONNACONA 2", "province": "QC", "lat": 46.68333333333333, "lon": -71.73333333333333}, {"id": "7012232", "name": "DUBERGER", "province": "QC", "lat": 46.81666666666667, "lon": -71.3}, {"id": "7012240", "name": "DUCHESNAY", "province": "QC", "lat": 46.86666666666667, "lon": -71.65}, {"id": "7013100", "name": "HEROUXVILLE", "province": "QC", "lat": 46.666666666666664, "lon": -72.6}, {"id": "7013102", "name": "HERVEY JONCTION", "province": "QC", "lat": 46.85, "lon": -72.46666666666667}, {"id": "7013200", "name": "HUDSON HEIGHTS", "province": "QC", "lat": 45.46666666666667, "lon": -74.16666666666667}, {"id": "7013279", "name": "ILE BOUCHARD", "province": "QC", "lat": 45.81666666666667, "lon": -73.35}, {"id": "7013360", "name": "JOLIETTE", "province": "QC", "lat": 46.03333333333333, "lon": -73.43333333333334}, {"id": "7013362", "name": "JOLIETTE VILLE", "province": "QC", "lat": 46.016666666666666, "lon": -73.43333333333334}, {"id": "7013570", "name": "LAC BROWN", "province": "QC", "lat": 46.916666666666664, "lon": -73.16666666666667}, {"id": "7013640", "name": "LAC EDOUARD", "province": "QC", "lat": 47.65, "lon": -72.26666666666667}, {"id": "7013642", "name": "LAC EDOUARD S", "province": "QC", "lat": 47.666666666666664, "lon": -72.26666666666667}, {"id": "7013655", "name": "LAC JACQUES CARTIER", "province": "QC", "lat": 47.56666666666667, "lon": -71.23333333333333}, {"id": "7013678", "name": "LAC MINOGAMI", "province": "QC", "lat": 46.666666666666664, "lon": -72.86666666666666}, {"id": "7013735", "name": "LAKE EDWARD", "province": "QC", "lat": 47.65, "lon": -72.25}, {"id": "7014160", "name": "L'ASSOMPTION", "province": "QC", "lat": 45.809444444444445, "lon": -73.43472222222222}, {"id": "7014260", "name": "LAVALTRIE CDA", "province": "QC", "lat": 45.93333333333333, "lon": -73.31666666666666}, {"id": "7014290", "name": "LES CEDRES", "province": "QC", "lat": 45.3, "lon": -74.05}, {"id": "7014298", "name": "LES SAULES", "province": "QC", "lat": 46.81666666666667, "lon": -71.31666666666666}, {"id": "7014325", "name": "LINTON", "province": "QC", "lat": 47.266666666666666, "lon": -72.25}, {"id": "7014329", "name": "LORETTEVILLE", "province": "QC", "lat": 46.86666666666667, "lon": -71.36666666666666}, {"id": "7014332", "name": "LOUISEVILLE", "province": "QC", "lat": 46.266666666666666, "lon": -73.01666666666667}, {"id": "7014629", "name": "MASCOUCHE", "province": "QC", "lat": 45.75, "lon": -73.6}, {"id": "7014630", "name": "MASKINONGE", "province": "QC", "lat": 46.233333333333334, "lon": -73.01666666666667}, {"id": "7015417", "name": "NEUFCHATEL", "province": "QC", "lat": 46.85, "lon": -71.36666666666666}, {"id": "7015665", "name": "NOTRE DAME DE LA MERCI", "province": "QC", "lat": 46.233333333333334, "lon": -74.05}, {"id": "7015730", "name": "OKA", "province": "QC", "lat": 45.5, "lon": -74.06666666666666}, {"id": "7016280", "name": "QUEBEC", "province": "QC", "lat": 46.8, "lon": -71.21666666666667}, {"id": "7016281", "name": "QUEBEC 2", "province": "QC", "lat": 46.8, "lon": -71.26666666666667}, {"id": "7016294", "name": "QUEBEC/JEAN LESAGE INTL A", "province": "QC", "lat": 46.8, "lon": -71.38333333333334}, {"id": "7016470", "name": "RIGAUD", "province": "QC", "lat": 45.5, "lon": -74.36666666666666}, {"id": "7016560", "name": "RIVIERE A PIERRE", "province": "QC", "lat": 47.0, "lon": -72.16666666666667}, {"id": "7016675", "name": "RIVIERE VERTE OUEST", "province": "QC", "lat": 46.983333333333334, "lon": -71.83333333333333}, {"id": "7016800", "name": "ST ALBAN", "province": "QC", "lat": 46.71666666666667, "lon": -72.08333333333333}, {"id": "7016816", "name": "ST ALEXIS DES MONTS", "province": "QC", "lat": 46.53333333333333, "lon": -73.15}, {"id": "7016840", "name": "STE ANNE DE LA PERADE", "province": "QC", "lat": 46.583333333333336, "lon": -72.23333333333333}, {"id": "7016900", "name": "ST AUGUSTIN", "province": "QC", "lat": 46.733333333333334, "lon": -71.5}, {"id": "7016902", "name": "STE BEATRIX", "province": "QC", "lat": 46.2, "lon": -73.6}, {"id": "7016906", "name": "ST BENOIT", "province": "QC", "lat": 45.56666666666667, "lon": -74.05}, {"id": "7016932", "name": "STE CATHERINE", "province": "QC", "lat": 46.85, "lon": -71.61666666666666}, {"id": "7016960", "name": "ST CHARLES DE MANDEVILLE", "province": "QC", "lat": 46.35, "lon": -73.35}, {"id": "5060220", "name": "BIRD", "province": "ON", "lat": 56.5, "lon": -94.2}, {"id": "5061000", "name": "GILLAM", "province": "ON", "lat": 56.35, "lon": -94.7}, {"id": "5061001", "name": "GILLAM A", "province": "ON", "lat": 56.3575, "lon": -94.71055555555556}, {"id": "5061067", "name": "GODS LAKE NARROWS A", "province": "ON", "lat": 54.55, "lon": -94.48333333333333}, {"id": "5061376", "name": "ISLAND LAKE A", "province": "ON", "lat": 53.85, "lon": -94.65}, {"id": "5061460", "name": "KETTLE GS", "province": "ON", "lat": 56.38333333333333, "lon": -94.65}, {"id": "5061567", "name": "LIMESTONE GS", "province": "ON", "lat": 56.5, "lon": -94.18333333333334}, {"id": "5061581", "name": "LONG SPRUCE GEN STN", "province": "ON", "lat": 56.38333333333333, "lon": -94.36666666666666}, {"id": "5062327", "name": "PORT NELSON", "province": "ON", "lat": 57.0, "lon": -92.85}, {"id": "5062337", "name": "RED SUCKER LAKE A", "province": "ON", "lat": 54.166666666666664, "lon": -93.55}, {"id": "5062656", "name": "SHAMATTAWA A", "province": "ON", "lat": 55.86666666666667, "lon": -92.08333333333333}, {"id": "5063350", "name": "YORK FACTORY", "province": "ON", "lat": 57.0, "lon": -92.3}, {"id": "6010387", "name": "ATTAWAPISKAT", "province": "ON", "lat": 52.916666666666664, "lon": -82.45}, {"id": "6010738", "name": "BIG TROUT LAKE", "province": "ON", "lat": 53.833333333333336, "lon": -89.86666666666666}, {"id": "6011305", "name": "CENTRAL PATRICIA", "province": "ON", "lat": 51.5, "lon": -90.15}, {"id": "6012064", "name": "DONA LAKE", "province": "ON", "lat": 51.4, "lon": -90.11666666666666}, {"id": "6012198", "name": "EAR FALLS", "province": "ON", "lat": 50.63333333333333, "lon": -93.21666666666667}, {"id": "6012490", "name": "FORT HOPE", "province": "ON", "lat": 51.55, "lon": -87.96666666666667}, {"id": "6014350", "name": "LANSDOWNE HOUSE", "province": "ON", "lat": 52.233333333333334, "lon": -87.88333333333334}, {"id": "6016525", "name": "PICKLE LAKE (AUT)", "province": "ON", "lat": 51.44916694444444, "lon": -90.21777972222222}, {"id": "6016527", "name": "PICKLE LAKE A", "province": "ON", "lat": 51.44638888888889, "lon": -90.21416666666667}, {"id": "6016890", "name": "RAT RAPIDS", "province": "ON", "lat": 51.2, "lon": -90.23333333333333}, {"id": "6016975", "name": "RED LAKE A", "province": "ON", "lat": 51.066944444444445, "lon": -93.79305555555555}, {"id": "6016979", "name": "RED LAKE FORESTRY", "province": "ON", "lat": 51.06666666666667, "lon": -93.81666666666666}, {"id": "6019548", "name": "WINISK", "province": "ON", "lat": 55.266666666666666, "lon": -85.21666666666667}, {"id": "6019550", "name": "WINISK A", "province": "ON", "lat": 55.233333333333334, "lon": -85.11666666666666}, {"id": "602B300", "name": "EMO HOSKINS", "province": "ON", "lat": 48.75, "lon": -93.85}, {"id": "602K300", "name": "EMO RADBOURNE", "province": "ON", "lat": 48.68333333333333, "lon": -93.83333333333333}, {"id": "6020379", "name": "ATIKOKAN", "province": "ON", "lat": 48.75, "lon": -91.61666666666666}, {"id": "6020381", "name": "ATIKOKAN CLI", "province": "ON", "lat": 48.733333333333334, "lon": -91.63333333333334}, {"id": "6020384", "name": "ATIKOKAN MARMION", "province": "ON", "lat": 48.8, "lon": -91.58333333333333}, {"id": "6020559", "name": "BARWICK", "province": "ON", "lat": 48.63333333333333, "lon": -93.96666666666667}, {"id": "6020727", "name": "BERGLAND", "province": "ON", "lat": 48.95, "lon": -94.35}, {"id": "6022010", "name": "DEVLIN", "province": "ON", "lat": 48.516666666666666, "lon": -93.75}, {"id": "6022011", "name": "DEVLIN BELLAMY", "province": "ON", "lat": 48.63333333333333, "lon": -93.66666666666667}, {"id": "6022300", "name": "EMO", "province": "ON", "lat": 48.63333333333333, "lon": -93.8}, {"id": "6022301", "name": "EMO 2", "province": "ON", "lat": 48.75, "lon": -93.88333333333334}, {"id": "6022475", "name": "FORT FRANCES", "province": "ON", "lat": 48.61666666666667, "lon": -93.41666666666667}, {"id": "6022476", "name": "FORT FRANCES A", "province": "ON", "lat": 48.65, "lon": -93.43333333333334}, {"id": "6022480", "name": "FORT FRANCES CDA EPF", "province": "ON", "lat": 48.55, "lon": -93.51666666666667}, {"id": "6022487", "name": "FORT FRANCES FORESTRY", "province": "ON", "lat": 48.61666666666667, "lon": -93.4}, {"id": "6024010", "name": "KAWENE", "province": "ON", "lat": 48.733333333333334, "lon": -91.2}, {"id": "6025203", "name": "MINE CENTRE", "province": "ON", "lat": 48.766666666666666, "lon": -92.61666666666666}, {"id": "6025407", "name": "MOOSE LAKE", "province": "ON", "lat": 48.833333333333336, "lon": -91.6}, {"id": "6026852", "name": "RAINY RIVER", "province": "ON", "lat": 48.71666666666667, "lon": -94.53333333333333}, {"id": "6026853", "name": "RAINY RIVER", "province": "ON", "lat": 48.766666666666666, "lon": -94.66666666666667}, {"id": "6027825", "name": "SLEEMAN", "province": "ON", "lat": 48.71666666666667, "lon": -94.41666666666667}, {"id": "6028125", "name": "STRATTON", "province": "ON", "lat": 48.78333333333333, "lon": -94.05}, {"id": "6028127", "name": "STRATTON ROEN", "province": "ON", "lat": 48.85, "lon": -94.01666666666667}, {"id": "6028128", "name": "STRATTON ROMYN", "province": "ON", "lat": 48.7, "lon": -94.16666666666667}, {"id": "6030488", "name": "BARCLAY", "province": "ON", "lat": 49.833333333333336, "lon": -92.81666666666666}, {"id": "6032117", "name": "DRYDEN", "province": "ON", "lat": 49.78333333333333, "lon": -92.83333333333333}, {"id": "6032119", "name": "DRYDEN A", "province": "ON", "lat": 49.833333333333336, "lon": -92.75}, {"id": "6032122", "name": "DRYDEN FORESTRY", "province": "ON", "lat": 49.81666666666667, "lon": -92.85}, {"id": "6032192", "name": "EAGLE RIVER", "province": "ON", "lat": 49.81666666666667, "lon": -93.21666666666667}, {"id": "6033690", "name": "IGNACE", "province": "ON", "lat": 49.416666666666664, "lon": -91.65}, {"id": "6033697", "name": "IGNACE TCPL 58", "province": "ON", "lat": 49.483333333333334, "lon": -92.0}, {"id": "6034070", "name": "KENORA", "province": "ON", "lat": 49.8, "lon": -94.53333333333333}, {"id": "6034075", "name": "KENORA A", "province": "ON", "lat": 49.790279166666664, "lon": -94.36527861111111}, {"id": "6034077", "name": "KENORA TCPL 49", "province": "ON", "lat": 49.78333333333333, "lon": -94.48333333333333}, {"id": "6034282", "name": "LAC SEUL", "province": "ON", "lat": 50.28333333333333, "lon": -92.2}, {"id": "6035000", "name": "MARTIN", "province": "ON", "lat": 49.25, "lon": -91.13333333333334}, {"id": "6035002", "name": "MARTIN TCPL 60", "province": "ON", "lat": 49.28333333333333, "lon": -91.23333333333333}, {"id": "6035190", "name": "MINAKI", "province": "ON", "lat": 49.983333333333334, "lon": -94.66666666666667}, {"id": "6036904", "name": "RAWSON LAKE", "province": "ON", "lat": 49.65, "lon": -93.71666666666667}, {"id": "6037768", "name": "SIOUX LOOKOUT", "province": "ON", "lat": 50.13333333333333, "lon": -91.86666666666666}, {"id": "6037770", "name": "SIOUX LOOKOUT", "province": "ON", "lat": 50.13333333333333, "lon": -91.86666666666666}, {"id": "6037775", "name": "SIOUX LOOKOUT A", "province": "ON", "lat": 50.11666666666667, "lon": -91.9}, {"id": "6037803", "name": "SIOUX NARROWS", "province": "ON", "lat": 49.483333333333334, "lon": -93.96666666666667}, {"id": "6037804", "name": "SIOUX NARROWS", "province": "ON", "lat": 49.38333333333333, "lon": -94.06666666666666}, {"id": "6039130", "name": "VALORA", "province": "ON", "lat": 49.75, "lon": -91.21666666666667}, {"id": "6039136", "name": "VERMILION BAY TCPL 52", "province": "ON", "lat": 49.833333333333336, "lon": -93.63333333333334}, {"id": "6039351", "name": "WATCOMB", "province": "ON", "lat": 49.9, "lon": -91.28333333333333}, {"id": "6039465", "name": "WHITEFISH BAY", "province": "ON", "lat": 49.483333333333334, "lon": -93.96666666666667}, {"id": "604FNL6", "name": "PIGEON RIVER", "province": "ON", "lat": 48.083333333333336, "lon": -89.63333333333334}, {"id": "604HBFA", "name": "THUNDER BAY WPCP", "province": "ON", "lat": 48.4, "lon": -89.23333333333333}, {"id": "604HK61", "name": "THUNDER BAY PROVINCIAL PAPER", "province": "ON", "lat": 48.45, "lon": -89.16666666666667}, {"id": "604H26A", "name": "THUNDER BAY POMBER", "province": "ON", "lat": 48.5, "lon": -89.21666666666667}, {"id": "6040010", "name": "ABITIBI CAMP 11", "province": "ON", "lat": 48.93333333333333, "lon": -89.35}, {"id": "6040011", "name": "ABITIBI CAMP 11", "province": "ON", "lat": 48.85, "lon": -89.11666666666666}, {"id": "6040018", "name": "ABITIBI CAMP 228", "province": "ON", "lat": 48.93333333333333, "lon": -89.25}, {"id": "6040020", "name": "ABITIBI CAMP 230", "province": "ON", "lat": 49.35, "lon": -89.36666666666666}, {"id": "6040022", "name": "ABITIBI CAMP 300", "province": "ON", "lat": 49.63333333333333, "lon": -89.75}, {"id": "6040081", "name": "AGUASABON", "province": "ON", "lat": 48.78333333333333, "lon": -87.16666666666667}, {"id": "6040322", "name": "ARMSTRONG", "province": "ON", "lat": 50.28333333333333, "lon": -89.15}, {"id": "6040325", "name": "ARMSTRONG (AUT)", "province": "ON", "lat": 50.29361111111111, "lon": -88.90527777777778}, {"id": "6040330", "name": "ARMSTRONG JELLIEN", "province": "ON", "lat": 50.25, "lon": -89.1}, {"id": "6040572", "name": "BEARDMORE", "province": "ON", "lat": 49.61666666666667, "lon": -87.95}, {"id": "6040785", "name": "BLACK STURGEON LAKE", "province": "ON", "lat": 49.31666666666667, "lon": -88.85}, {"id": "6040786", "name": "BLACK STURGEON LAKE 2", "province": "ON", "lat": 49.3, "lon": -88.8}, {"id": "6040790", "name": "BLACK STURGEON RIVER", "province": "ON", "lat": 49.06666666666667, "lon": -88.61666666666666}, {"id": "6041036", "name": "BURCHELL LAKE", "province": "ON", "lat": 48.61666666666667, "lon": -90.58333333333333}, {"id": "6041109", "name": "CAMERON FALLS", "province": "ON", "lat": 49.15, "lon": -88.35}, {"id": "6041193", "name": "CARAMAT", "province": "ON", "lat": 49.266666666666666, "lon": -85.83333333333333}, {"id": "6041221", "name": "CARIBOU ISLAND", "province": "ON", "lat": 47.333333333333336, "lon": -85.83333333333333}, {"id": "6042MJ7", "name": "FLINT", "province": "ON", "lat": 48.35, "lon": -89.68333333333334}, {"id": "6042036", "name": "DOG LAKE DAM", "province": "ON", "lat": 48.7, "lon": -89.61666666666666}, {"id": "6042045", "name": "DOG RIVER", "province": "ON", "lat": 48.983333333333334, "lon": -89.9}, {"id": "6042063", "name": "DONA", "province": "ON", "lat": 48.5, "lon": -89.51666666666667}, {"id": "6042067", "name": "DORION TCPL 70", "province": "ON", "lat": 48.81666666666667, "lon": -88.51666666666667}, {"id": "6042715", "name": "GERALDTON", "province": "ON", "lat": 49.7, "lon": -86.95}, {"id": "6042716", "name": "GERALDTON A", "province": "ON", "lat": 49.782802777777775, "lon": -86.93056944444444}, {"id": "6042723", "name": "GERALDTON FORESTRY", "province": "ON", "lat": 49.7, "lon": -86.86666666666666}, {"id": "6042755", "name": "GERALDTON ONT HYDRO", "province": "ON", "lat": 49.68333333333333, "lon": -86.95}, {"id": "6042975", "name": "GRAHAM A", "province": "ON", "lat": 49.266666666666666, "lon": -90.58333333333333}, {"id": "6043330", "name": "HANOVER TOWER", "province": "ON", "lat": 50.4, "lon": -87.16666666666667}, {"id": "6043452", "name": "HEMLO BATTLE MOUNTAIN", "province": "ON", "lat": 48.7, "lon": -85.88333333333334}, {"id": "6043458", "name": "HERON BAY", "province": "ON", "lat": 48.666666666666664, "lon": -86.28333333333333}, {"id": "6043460", "name": "HERON BAY SOUTH", "province": "ON", "lat": 48.983333333333334, "lon": -85.81666666666666}, {"id": "6043870", "name": "JARVIS LAKE", "province": "ON", "lat": 49.25, "lon": -87.81666666666666}, {"id": "6043930", "name": "KAKABEKA FALLS", "province": "ON", "lat": 48.4, "lon": -89.61666666666666}, {"id": "6043949", "name": "KAMINISTIKWIA", "province": "ON", "lat": 48.55, "lon": -89.4}, {"id": "6044000", "name": "KASHABOWIE", "province": "ON", "lat": 48.6, "lon": -90.6}, {"id": "6044050", "name": "KENOGAMI DAM", "province": "ON", "lat": 49.916666666666664, "lon": -86.46666666666667}, {"id": "6044115", "name": "KILLALA LAKE", "province": "ON", "lat": 49.15, "lon": -86.46666666666667}, {"id": "6044138", "name": "KINGFISHER LAKE", "province": "ON", "lat": 48.65, "lon": -89.06666666666666}, {"id": "6044298", "name": "LAKEHEAD UNIVERSITY", "province": "ON", "lat": 48.43333333333333, "lon": -89.26666666666667}, {"id": "6044525", "name": "LONGLAC", "province": "ON", "lat": 49.75, "lon": -86.5}, {"id": "6044560", "name": "LONGLAC P AND P", "province": "ON", "lat": 49.766666666666666, "lon": -86.53333333333333}, {"id": "6044595", "name": "LONG LAKE CONTROL DAM", "province": "ON", "lat": 49.083333333333336, "lon": -87.05}, {"id": "6044612", "name": "LOON", "province": "ON", "lat": 48.63333333333333, "lon": -88.76666666666667}, {"id": "6044735", "name": "MACDIARMID", "province": "ON", "lat": 49.43333333333333, "lon": -88.15}, {"id": "6044890", "name": "MANITOU FALLS", "province": "ON", "lat": 49.2, "lon": -86.1}, {"id": "6044903", "name": "MANITOUWADGE", "province": "ON", "lat": 49.15, "lon": -85.8}, {"id": "6044959", "name": "MARATHON", "province": "ON", "lat": 48.71666666666667, "lon": -86.4}, {"id": "6044961", "name": "MARATHON AIRPORT", "province": "ON", "lat": 48.75555555555555, "lon": -86.34444444444445}, {"id": "6045541", "name": "MYRT LAKE", "province": "ON", "lat": 48.46666666666667, "lon": -90.71666666666667}, {"id": "6045550", "name": "NAKINA A", "province": "ON", "lat": 50.18333333333333, "lon": -86.7}, {"id": "6045572", "name": "NAKINA FORESTRY", "province": "ON", "lat": 50.18333333333333, "lon": -86.7}, {"id": "6045665", "name": "NIPIGON", "province": "ON", "lat": 49.0, "lon": -88.25}, {"id": "6045675", "name": "NOLALU", "province": "ON", "lat": 48.15, "lon": -89.88333333333334}, {"id": "6045676", "name": "NOLALU SSW22", "province": "ON", "lat": 48.1, "lon": -89.88333333333334}, {"id": "6045711", "name": "NORTH LAKE", "province": "ON", "lat": 48.13333333333333, "lon": -90.56666666666666}, {"id": "6046164", "name": "OXALINE LAKE", "province": "ON", "lat": 49.7, "lon": -87.56666666666666}, {"id": "6046281", "name": "PAYS PLAT", "province": "ON", "lat": 48.86666666666667, "lon": -87.6}, {"id": "6046283", "name": "PAYS PLAT FORESTRY", "province": "ON", "lat": 48.88333333333333, "lon": -87.53333333333333}, {"id": "6046549", "name": "PINE PORTAGE", "province": "ON", "lat": 49.3, "lon": -88.31666666666666}, {"id": "6046588", "name": "PORT ARTHUR", "province": "ON", "lat": 48.43333333333333, "lon": -89.21666666666667}, {"id": "6046590", "name": "PORT ARTHUR CKPR", "province": "ON", "lat": 48.416666666666664, "lon": -89.26666666666667}, {"id": "6046770", "name": "PUKASKWA NATL PARK", "province": "ON", "lat": 48.6, "lon": -86.3}, {"id": "6046811", "name": "QUORN", "province": "ON", "lat": 49.416666666666664, "lon": -90.9}, {"id": "6046856", "name": "RAITH TCPL 64", "province": "ON", "lat": 48.733333333333334, "lon": -89.86666666666666}, {"id": "6046989", "name": "REDMOND", "province": "ON", "lat": 50.233333333333334, "lon": -87.5}, {"id": "6047615", "name": "SAVANNE", "province": "ON", "lat": 48.96666666666667, "lon": -90.2}, {"id": "6047617", "name": "SAVANNE LAKE", "province": "ON", "lat": 48.833333333333336, "lon": -90.1}, {"id": "6047620", "name": "SAVANT LAKE", "province": "ON", "lat": 50.46666666666667, "lon": -90.35}, {"id": "6047627", "name": "SCHREIBER", "province": "ON", "lat": 48.81666666666667, "lon": -87.26666666666667}, {"id": "6047810", "name": "SLATE ISLAND", "province": "ON", "lat": 48.62111111111111, "lon": -86.99583333333334}, {"id": "6048K6J", "name": "THUNDER BAY MCS CENTRE", "province": "ON", "lat": 48.31666666666667, "lon": -89.38333333333334}, {"id": "6048017", "name": "STEVENS", "province": "ON", "lat": 49.53333333333333, "lon": -85.85}, {"id": "6048145", "name": "STURGEON LAKE", "province": "ON", "lat": 49.88333333333333, "lon": -90.96666666666667}, {"id": "6048175", "name": "SUMMIT CONTROL DAM", "province": "ON", "lat": 50.63333333333333, "lon": -88.2}, {"id": "6048230", "name": "TERRACE BAY", "province": "ON", "lat": 48.8, "lon": -87.1}, {"id": "6048261", "name": "THUNDER BAY A", "province": "ON", "lat": 48.36944444444445, "lon": -89.32723277777778}, {"id": "6048951", "name": "TROUT LAKE", "province": "ON", "lat": 48.61666666666667, "lon": -89.36666666666666}, {"id": "6049095", "name": "UPSALA (AUT)", "province": "ON", "lat": 49.03333333333333, "lon": -90.46666666666667}, {"id": "6049096", "name": "UPSALA", "province": "ON", "lat": 49.05, "lon": -90.46666666666667}, {"id": "6049098", "name": "UPSALA TCPL 62", "province": "ON", "lat": 49.03333333333333, "lon": -90.51666666666667}, {"id": "6049175", "name": "WABOOSE DAM", "province": "ON", "lat": 50.78333333333333, "lon": -87.98333333333333}, {"id": "6049443", "name": "WELCOME ISLAND (AUT)", "province": "ON", "lat": 48.369166666666665, "lon": -89.11944444444444}, {"id": "6049466", "name": "WHITEFISH LAKE", "province": "ON", "lat": 48.28333333333333, "lon": -89.91666666666667}, {"id": "6050NNP", "name": "BAR RIVER", "province": "ON", "lat": 46.43333333333333, "lon": -84.05}, {"id": "6050801", "name": "BLIND RIVER", "province": "ON", "lat": 46.2, "lon": -83.0}, {"id": "6050805", "name": "BLIND RIVER HYDRO CENTRE", "province": "ON", "lat": 46.2, "lon": -83.01666666666667}, {"id": "6051R65", "name": "DALTON", "province": "ON", "lat": 48.15, "lon": -84.03333333333333}, {"id": "605102G", "name": "BRUCE MINES RADIGAN", "province": "ON", "lat": 46.3, "lon": -83.75}, {"id": "6051027", "name": "BRUCE MINES", "province": "ON", "lat": 46.3, "lon": -83.91666666666667}, {"id": "6052258", "name": "ELLIOT LAKE", "province": "ON", "lat": 46.38333333333333, "lon": -82.65}, {"id": "6052260", "name": "ELLIOT LAKE DENISON", "province": "ON", "lat": 46.5, "lon": -82.61666666666666}, {"id": "6052268", "name": "ELLIOT LAKE STANLEIGH", "province": "ON", "lat": 46.416666666666664, "lon": -82.65}, {"id": "6052563", "name": "FRANZ", "province": "ON", "lat": 48.46666666666667, "lon": -84.41666666666667}, {"id": "6053391", "name": "HAWK JUNCTION", "province": "ON", "lat": 48.083333333333336, "lon": -84.55}, {"id": "6053463", "name": "HIGH FALLS", "province": "ON", "lat": 47.916666666666664, "lon": -84.71666666666667}, {"id": "6053570", "name": "HORNEPAYNE", "province": "ON", "lat": 49.233333333333334, "lon": -84.8}, {"id": "6053575", "name": "HORNEPAYNE A", "province": "ON", "lat": 49.2, "lon": -84.76666666666667}, {"id": "6053803", "name": "IRON BRIDGE", "province": "ON", "lat": 46.266666666666666, "lon": -83.35}, {"id": "6053804", "name": "IRON BRIDGE", "province": "ON", "lat": 46.28333333333333, "lon": -83.23333333333333}, {"id": "6054078", "name": "KENTVALE", "province": "ON", "lat": 46.21666666666667, "lon": -84.06666666666666}, {"id": "6055095", "name": "MICHIPICOTEN FALLS", "province": "ON", "lat": 47.88333333333333, "lon": -84.63333333333334}, {"id": "6055209", "name": "MISSANABIE", "province": "ON", "lat": 48.31666666666667, "lon": -84.08333333333333}, {"id": "6055210", "name": "MISSISSAGI ONT HYDRO", "province": "ON", "lat": 46.43333333333333, "lon": -83.38333333333334}, {"id": "6055300", "name": "MONTREAL FALLS", "province": "ON", "lat": 47.25, "lon": -84.4}, {"id": "6055302", "name": "MONTREAL FALLS", "province": "ON", "lat": 47.266666666666666, "lon": -84.43333333333334}, {"id": "6055754", "name": "OBA", "province": "ON", "lat": 49.06666666666667, "lon": -84.1}, {"id": "6056389", "name": "PESHU LAKE", "province": "ON", "lat": 46.61666666666667, "lon": -83.16666666666667}, {"id": "6056907", "name": "RAYNER", "province": "ON", "lat": 46.333333333333336, "lon": -83.5}, {"id": "6057327", "name": "ST JOSEPH ISLAND MTN", "province": "ON", "lat": 46.2, "lon": -83.95}, {"id": "6057437", "name": "SAND LAKE", "province": "ON", "lat": 47.78333333333333, "lon": -84.53333333333333}, {"id": "6057589", "name": "SAULT STE MARIE", "province": "ON", "lat": 46.53333333333333, "lon": -84.5}, {"id": "6057590", "name": "SAULT STE MARIE 2", "province": "ON", "lat": 46.53333333333333, "lon": -84.33333333333333}, {"id": "6057592", "name": "SAULT STE MARIE A", "province": "ON", "lat": 46.483333333333334, "lon": -84.50944444444444}, {"id": "6057595", "name": "SAULT STE M FORESTRY", "province": "ON", "lat": 46.5, "lon": -84.36666666666666}, {"id": "6057597", "name": "SAULT STE M INSECTARY", "province": "ON", "lat": 46.46666666666667, "lon": -84.46666666666667}, {"id": "6057605", "name": "SAULT STE M SHINGWOUK", "province": "ON", "lat": 46.5, "lon": -84.28333333333333}, {"id": "6057678", "name": "SEARCHMONT", "province": "ON", "lat": 46.75, "lon": -84.08333333333333}, {"id": "6058010", "name": "STEEP HILL FALLS", "province": "ON", "lat": 48.06666666666667, "lon": -84.8}, {"id": "6059D09", "name": "WAWA A", "province": "ON", "lat": 47.96666666666667, "lon": -84.78333333333333}, {"id": "6059210", "name": "WALFORD", "province": "ON", "lat": 46.2, "lon": -82.23333333333333}, {"id": "6059211", "name": "WALFORD", "province": "ON", "lat": 46.2, "lon": -82.28333333333333}, {"id": "6059408", "name": "WAWA (AUT)", "province": "ON", "lat": 47.96666666666667, "lon": -84.78333333333333}, {"id": "6059409", "name": "WAWA", "province": "ON", "lat": 48.0, "lon": -84.8}, {"id": "6059475", "name": "WHITE RIVER", "province": "ON", "lat": 48.6, "lon": -85.28333333333333}, {"id": "6060070", "name": "AGNEW MINE", "province": "ON", "lat": 46.43333333333333, "lon": -81.61666666666666}, {"id": "6060725", "name": "BENNY", "province": "ON", "lat": 46.516666666666666, "lon": -81.63333333333334}, {"id": "6060773", "name": "BISCOTASING", "province": "ON", "lat": 47.3, "lon": -82.1}, {"id": "6061263", "name": "CARTIER", "province": "ON", "lat": 46.7, "lon": -81.56666666666666}, {"id": "6061358", "name": "CHAPLEAU", "province": "ON", "lat": 47.833333333333336, "lon": -83.43333333333334}, {"id": "6061359", "name": "CHAPLEAU 2", "province": "ON", "lat": 47.833333333333336, "lon": -83.43333333333334}, {"id": "6061361", "name": "CHAPLEAU A", "province": "ON", "lat": 47.82, "lon": -83.34666666666666}, {"id": "6061847", "name": "CONISTON", "province": "ON", "lat": 46.46666666666667, "lon": -80.81666666666666}, {"id": "6061850", "name": "CONISTON STP", "province": "ON", "lat": 46.483333333333334, "lon": -80.85}, {"id": "6061870", "name": "COPPER CLIFF", "province": "ON", "lat": 46.483333333333334, "lon": -81.05}, {"id": "6062425", "name": "FOLEYET", "province": "ON", "lat": 48.25, "lon": -82.43333333333334}, {"id": "6062665", "name": "GARSON", "province": "ON", "lat": 46.56666666666667, "lon": -80.86666666666666}, {"id": "6062860", "name": "GOGAMA TREE NURSERY", "province": "ON", "lat": 47.68333333333333, "lon": -81.71666666666667}, {"id": "6064460", "name": "LIVELY", "province": "ON", "lat": 46.43333333333333, "lon": -81.15}, {"id": "6064942", "name": "MANVILLE REEVES", "province": "ON", "lat": 48.21666666666667, "lon": -82.08333333333333}, {"id": "6065005", "name": "MASSEY", "province": "ON", "lat": 46.21666666666667, "lon": -82.06666666666666}, {"id": "6065006", "name": "MASSEY", "province": "ON", "lat": 46.19308, "lon": -82.02472833333333}, {"id": "6065015", "name": "MATTAGAMI LAKE DAM", "province": "ON", "lat": 48.016666666666666, "lon": -81.55}, {"id": "6065020", "name": "MATTAGAMI PATROL", "province": "ON", "lat": 47.9, "lon": -81.55}, {"id": "6065043", "name": "MCVITTIES", "province": "ON", "lat": 46.28333333333333, "lon": -80.85}, {"id": "6065250", "name": "MONETVILLE", "province": "ON", "lat": 46.14250166666667, "lon": -80.30695666666666}, {"id": "6066873", "name": "RAMSAY", "province": "ON", "lat": 47.45, "lon": -82.33333333333333}, {"id": "6066875", "name": "RAMSEY", "province": "ON", "lat": 47.416666666666664, "lon": -82.31666666666666}, {"id": "6066877", "name": "RAMSEY 2", "province": "ON", "lat": 47.46666666666667, "lon": -81.86666666666666}, {"id": "6067211", "name": "RUEL", "province": "ON", "lat": 47.3, "lon": -81.45}, {"id": "6067308", "name": "ST CHARLES", "province": "ON", "lat": 46.36666666666667, "lon": -80.51666666666667}, {"id": "6068148", "name": "SUDBURY", "province": "ON", "lat": 46.483333333333334, "lon": -80.98333333333333}, {"id": "6068150", "name": "SUDBURY A", "province": "ON", "lat": 46.62555555555556, "lon": -80.79777777777778}, {"id": "6068155", "name": "SUDBURY MOE", "province": "ON", "lat": 46.46666666666667, "lon": -81.03333333333333}, {"id": "6068158", "name": "SUDBURY SCIENCE NORTH", "province": "ON", "lat": 46.46666666666667, "lon": -81.0}, {"id": "6068980", "name": "TURBINE", "province": "ON", "lat": 46.38333333333333, "lon": -81.56666666666666}, {"id": "6069K90", "name": "WARREN", "province": "ON", "lat": 46.43333333333333, "lon": -80.31666666666666}, {"id": "6069165", "name": "WABAGISHIK", "province": "ON", "lat": 46.31666666666667, "lon": -81.51666666666667}, {"id": "6069197", "name": "WAHNAPITAE-STOKES", "province": "ON", "lat": 46.43333333333333, "lon": -80.71666666666667}, {"id": "6069428", "name": "WEBBWOOD", "province": "ON", "lat": 46.266666666666666, "lon": -81.88333333333334}, {"id": "6070QK6", "name": "BONNER LAKE", "province": "ON", "lat": 49.38333333333333, "lon": -82.12361111111112}, {"id": "6070027", "name": "ABITIBI CANYON", "province": "ON", "lat": 49.88333333333333, "lon": -81.56666666666666}, {"id": "6071712", "name": "COCHRANE", "province": "ON", "lat": 49.06666666666667, "lon": -81.03333333333333}, {"id": "6071855", "name": "CONNAUGHT", "province": "ON", "lat": 48.61666666666667, "lon": -80.91666666666667}, {"id": "6072183", "name": "DYMOND ONT HYDRO", "province": "ON", "lat": 47.516666666666666, "lon": -79.68333333333334}, {"id": "6072225", "name": "EARLTON A", "province": "ON", "lat": 47.7, "lon": -79.85}, {"id": "6072325", "name": "ENGLEHART", "province": "ON", "lat": 47.81666666666667, "lon": -79.9}, {"id": "6072460", "name": "FORT ALBANY", "province": "ON", "lat": 52.21666666666667, "lon": -81.66666666666667}, {"id": "6072595", "name": "FREDERICKHOUSE LAKE DAM", "province": "ON", "lat": 48.766666666666666, "lon": -80.98333333333333}, {"id": "6073138", "name": "HAILEYBURY", "province": "ON", "lat": 47.45, "lon": -79.63333333333334}, {"id": "6073420", "name": "HEASLIP", "province": "ON", "lat": 47.8, "lon": -79.83333333333333}, {"id": "6073600", "name": "HOUND CHUTE", "province": "ON", "lat": 47.3, "lon": -79.7}, {"id": "6073630", "name": "HUNTA", "province": "ON", "lat": 49.11666666666667, "lon": -81.26666666666667}, {"id": "6073750", "name": "INDIAN CHUTE", "province": "ON", "lat": 47.85, "lon": -80.45}, {"id": "6073810", "name": "IROQUOIS FALLS", "province": "ON", "lat": 48.75, "lon": -80.66666666666667}, {"id": "6073840", "name": "ISLAND FALLS", "province": "ON", "lat": 49.583333333333336, "lon": -81.38333333333334}, {"id": "6073960", "name": "KAPUSKASING CDA", "province": "ON", "lat": 49.4, "lon": -82.43333333333334}, {"id": "6073975", "name": "KAPUSKASING A", "province": "ON", "lat": 49.41388888888889, "lon": -82.4675}, {"id": "6074100", "name": "KIDD CREEK MINE", "province": "ON", "lat": 48.68333333333333, "lon": -81.36666666666666}, {"id": "6074209", "name": "KIRKLAND LAKE", "province": "ON", "lat": 48.15, "lon": -80.0}, {"id": "6074620", "name": "LOWBUSH", "province": "ON", "lat": 48.916666666666664, "lon": -80.11666666666666}, {"id": "6074630", "name": "LOWER STURGEON", "province": "ON", "lat": 48.81666666666667, "lon": -81.48333333333333}, {"id": "6075012", "name": "MATHESON", "province": "ON", "lat": 48.53333333333333, "lon": -80.45}, {"id": "6075013", "name": "MATHESON ONT HYDRO", "province": "ON", "lat": 48.53333333333333, "lon": -80.46666666666667}, {"id": "6075024", "name": "MATTICE TCPL", "province": "ON", "lat": 49.6, "lon": -83.16666666666667}, {"id": "6075211", "name": "MISTINIKON LAKE DAM", "province": "ON", "lat": 48.05, "lon": -80.71666666666667}, {"id": "6075379", "name": "MONTREAL RIVER", "province": "ON", "lat": 47.11666666666667, "lon": -79.48333333333333}, {"id": "6075400", "name": "MOOSE FACTORY", "province": "ON", "lat": 51.233333333333334, "lon": -80.5}, {"id": "6075425", "name": "MOOSONEE UA", "province": "ON", "lat": 51.266666666666666, "lon": -80.65}, {"id": "6075542", "name": "NAGAGAMI", "province": "ON", "lat": 49.766666666666666, "lon": -84.51666666666667}, {"id": "6075594", "name": "NEW LISKEARD", "province": "ON", "lat": 47.5, "lon": -79.66666666666667}, {"id": "6076180", "name": "PAGWA", "province": "ON", "lat": 50.05, "lon": -85.3}, {"id": "6076200", "name": "PAGWA A", "province": "ON", "lat": 50.03333333333333, "lon": -85.26666666666667}, {"id": "6076540", "name": "PINARD", "province": "ON", "lat": 49.85, "lon": -81.6}, {"id": "6076572", "name": "PORCUPINE ONT HYDRO", "province": "ON", "lat": 48.46666666666667, "lon": -81.26666666666667}, {"id": "6076575", "name": "PORQUIS JUNCTION A", "province": "ON", "lat": 48.733333333333334, "lon": -80.8}, {"id": "6076870", "name": "RAMORE TS", "province": "ON", "lat": 48.333333333333336, "lon": -80.43333333333334}, {"id": "6077475", "name": "SANDY FALLS", "province": "ON", "lat": 48.516666666666666, "lon": -81.43333333333334}, {"id": "6077845", "name": "SMOKY FALLS", "province": "ON", "lat": 50.06666666666667, "lon": -82.16666666666667}, {"id": "6078280", "name": "TIMMINS", "province": "ON", "lat": 48.5, "lon": -81.33333333333333}, {"id": "6078285", "name": "TIMMINS VICTOR POWER A", "province": "ON", "lat": 48.569722222222225, "lon": -81.37666666666667}, {"id": "6078290", "name": "TIMMINS ONT HYDRO", "province": "ON", "lat": 48.46666666666667, "lon": -81.36666666666666}, {"id": "6079040", "name": "TWIN FALLS", "province": "ON", "lat": 48.75, "lon": -80.58333333333333}, {"id": "6079068", "name": "UPPER NOTCH", "province": "ON", "lat": 47.25, "lon": -79.58333333333333}, {"id": "6079415", "name": "WAWAITIN", "province": "ON", "lat": 48.35, "lon": -81.4}, {"id": "608A06G", "name": "CACHE BAY", "province": "ON", "lat": 46.38333333333333, "lon": -80.01666666666667}, {"id": "6080HB6", "name": "BONFIELD", "province": "ON", "lat": 46.21666666666667, "lon": -79.13333333333334}, {"id": "6080189", "name": "ALGONQUIN PARK", "province": "ON", "lat": 45.583333333333336, "lon": -78.55}, {"id": "6080191", "name": "ALGONQUIN PARK EAST", "province": "ON", "lat": 45.53333333333333, "lon": -78.26666666666667}, {"id": "6080193", "name": "ALGONQUIN PARK WEST", "province": "ON", "lat": 45.333333333333336, "lon": -78.85}, {"id": "6080577", "name": "BEAR ISLAND", "province": "ON", "lat": 46.983333333333334, "lon": -80.08333333333333}, {"id": "6080729", "name": "BIG CHAUDIERE FALLS", "province": "ON", "lat": 46.15, "lon": -80.01666666666667}, {"id": "6081928", "name": "CRYSTAL FALLS", "province": "ON", "lat": 46.45, "lon": -79.86666666666666}, {"id": "6082178", "name": "DWIGHT", "province": "ON", "lat": 45.38333333333333, "lon": -78.9}, {"id": "6082612", "name": "FRENCH R CHAUDIERE DAM", "province": "ON", "lat": 46.13333333333333, "lon": -80.01666666666667}, {"id": "6084278", "name": "LA CAVE", "province": "ON", "lat": 46.36666666666667, "lon": -78.73333333333333}, {"id": "6084300", "name": "LAKE OPEONGO", "province": "ON", "lat": 45.63333333333333, "lon": -78.36666666666666}, {"id": "6084307", "name": "LAKE TRAVERSE", "province": "ON", "lat": 45.95, "lon": -78.06666666666666}, {"id": "6084770", "name": "MADAWASKA", "province": "ON", "lat": 45.5, "lon": -77.98333333333333}, {"id": "6085023", "name": "MATTAWA", "province": "ON", "lat": 46.25, "lon": -78.68333333333334}, {"id": "6085682", "name": "NORTH BAY", "province": "ON", "lat": 46.31666666666667, "lon": -79.46666666666667}, {"id": "6085700", "name": "NORTH BAY A", "province": "ON", "lat": 46.36361111111111, "lon": -79.42277777777778}, {"id": "6085704", "name": "NORTH BAY OWRC", "province": "ON", "lat": 46.3, "lon": -79.46666666666667}, {"id": "6086930", "name": "RED CEDAR LAKE DAM", "province": "ON", "lat": 46.68333333333333, "lon": -80.01666666666667}, {"id": "6087255", "name": "RUTHERGLEN", "province": "ON", "lat": 46.25, "lon": -79.06666666666666}, {"id": "6088144", "name": "STURGEON FALLS", "province": "ON", "lat": 46.36666666666667, "lon": -79.93333333333334}, {"id": "6088271", "name": "TIMAGAMI", "province": "ON", "lat": 47.083333333333336, "lon": -79.85}, {"id": "6091718", "name": "COCKBURN ISLAND", "province": "ON", "lat": 45.95, "lon": -83.3}, {"id": "6092915", "name": "GORE BAY", "province": "ON", "lat": 45.916666666666664, "lon": -82.46666666666667}, {"id": "6092925", "name": "GORE BAY A", "province": "ON", "lat": 45.88333333333333, "lon": -82.56666666666666}, {"id": "6093004", "name": "GREAT DUCK ISLAND", "province": "ON", "lat": 45.65, "lon": -82.96666666666667}, {"id": "6093900", "name": "KAGAWONG", "province": "ON", "lat": 45.916666666666664, "lon": -82.26666666666667}, {"id": "6094449", "name": "LITTLE CURRENT", "province": "ON", "lat": 45.96666666666667, "lon": -81.91666666666667}, {"id": "6094450", "name": "LITTLE CURRENT", "province": "ON", "lat": 45.93333333333333, "lon": -81.9}, {"id": "6096755", "name": "PROVIDENCE BAY", "province": "ON", "lat": 45.666666666666664, "lon": -82.23333333333333}, {"id": "6097915", "name": "SOUTH BAYMOUTH", "province": "ON", "lat": 45.583333333333336, "lon": -82.01666666666667}, {"id": "610E061", "name": "MERIVALE TS", "province": "ON", "lat": 45.333333333333336, "lon": -75.73333333333333}, {"id": "610FLPR", "name": "PERTH", "province": "ON", "lat": 44.916666666666664, "lon": -76.28333333333333}, {"id": "610F3Q0", "name": "PERTH", "province": "ON", "lat": 44.88333333333333, "lon": -76.2}, {"id": "6100172", "name": "ALFRED", "province": "ON", "lat": 45.55, "lon": -74.88333333333334}, {"id": "6100174", "name": "ALFRED AUTOMATIC CLIMATE STATION", "province": "ON", "lat": 45.55, "lon": -74.88333333333334}, {"id": "6100226", "name": "ALMONTE", "province": "ON", "lat": 45.18333333333333, "lon": -76.23333333333333}, {"id": "6100284", "name": "APPLE HILL", "province": "ON", "lat": 45.21666666666667, "lon": -74.75}, {"id": "6100310", "name": "ARDEN", "province": "ON", "lat": 44.7, "lon": -76.95}, {"id": "6100340", "name": "ARNPRIOR", "province": "ON", "lat": 45.43333333333333, "lon": -76.38333333333334}, {"id": "6100345", "name": "ARNPRIOR GRANDON", "province": "ON", "lat": 45.416666666666664, "lon": -76.36666666666666}, {"id": "6100353", "name": "ASHTON", "province": "ON", "lat": 45.2, "lon": -75.96666666666667}, {"id": "6100363", "name": "ASHTON STN SESIA FARM", "province": "ON", "lat": 45.166666666666664, "lon": -76.06666666666666}, {"id": "6100375", "name": "ATHENS", "province": "ON", "lat": 44.65, "lon": -75.91666666666667}, {"id": "6100398", "name": "AVONMORE", "province": "ON", "lat": 45.17001166666667, "lon": -74.97084}, {"id": "6100493", "name": "BARK LAKE DAM", "province": "ON", "lat": 45.416666666666664, "lon": -77.8}, {"id": "6100521", "name": "BARRETT CHUTE", "province": "ON", "lat": 45.25, "lon": -76.76666666666667}, {"id": "6100558", "name": "BARRY'S BAY", "province": "ON", "lat": 45.43333333333333, "lon": -77.66666666666667}, {"id": "6100720", "name": "BELLROCK", "province": "ON", "lat": 44.483333333333334, "lon": -76.76666666666667}, {"id": "6100828", "name": "BOURGET", "province": "ON", "lat": 45.46666666666667, "lon": -75.16666666666667}, {"id": "6100969", "name": "BROCKVILLE", "province": "ON", "lat": 44.6, "lon": -75.7}, {"id": "6100971", "name": "BROCKVILLE PCC", "province": "ON", "lat": 44.6, "lon": -75.66666666666667}, {"id": "6101077", "name": "CALABOGIE", "province": "ON", "lat": 45.25, "lon": -76.73333333333333}, {"id": "6101200", "name": "CARDINAL", "province": "ON", "lat": 44.8, "lon": -75.36666666666666}, {"id": "6101249", "name": "CARLETON PLACE", "province": "ON", "lat": 45.15, "lon": -76.16666666666667}, {"id": "6101250", "name": "CARLETON PLACE", "province": "ON", "lat": 45.15, "lon": -76.2}, {"id": "6101260", "name": "CARP", "province": "ON", "lat": 45.3, "lon": -75.98333333333333}, {"id": "6101265", "name": "CATARAQUI TS", "province": "ON", "lat": 44.36666666666667, "lon": -76.61666666666666}, {"id": "6101335", "name": "CHALK RIVER AECL", "province": "ON", "lat": 46.05, "lon": -77.36666666666666}, {"id": "6101440", "name": "CHATS FALLS", "province": "ON", "lat": 45.46666666666667, "lon": -76.23333333333333}, {"id": "6101494", "name": "CHENAUX", "province": "ON", "lat": 45.583333333333336, "lon": -76.68333333333334}, {"id": "6101500", "name": "CHESTERVILLE", "province": "ON", "lat": 45.1, "lon": -75.23333333333333}, {"id": "6101502", "name": "CHESTERVILLE 2", "province": "ON", "lat": 45.016666666666666, "lon": -75.2}, {"id": "6101521", "name": "CITY VIEW", "province": "ON", "lat": 45.35, "lon": -75.73333333333333}, {"id": "6101555", "name": "CLAYBANK", "province": "ON", "lat": 45.416666666666664, "lon": -76.4}, {"id": "6101658", "name": "CLONTARF", "province": "ON", "lat": 45.38333333333333, "lon": -77.15}, {"id": "6101675", "name": "COBDEN ONTARIO HYDRO", "province": "ON", "lat": 45.63333333333333, "lon": -76.86666666666666}, {"id": "6101820", "name": "COMBERMERE", "province": "ON", "lat": 45.36666666666667, "lon": -77.61666666666666}, {"id": "6101872", "name": "CORNWALL", "province": "ON", "lat": 45.016666666666666, "lon": -74.73333333333333}, {"id": "6101873", "name": "CORNWALL", "province": "ON", "lat": 45.03333333333333, "lon": -74.7}, {"id": "6101874", "name": "CORNWALL", "province": "ON", "lat": 45.01557833333333, "lon": -74.7489}, {"id": "6101880", "name": "CORNWALL COLLEGE", "province": "ON", "lat": 45.03333333333333, "lon": -74.71666666666667}, {"id": "6101885", "name": "CORNWALL CUMBERLAND ST", "province": "ON", "lat": 45.05, "lon": -74.75}, {"id": "6101901", "name": "CORNWALL ONT HYDRO", "province": "ON", "lat": 45.03333333333333, "lon": -74.8}, {"id": "6101909", "name": "CORNWALL ST LHS", "province": "ON", "lat": 45.03333333333333, "lon": -74.71666666666667}, {"id": "6101920", "name": "CROW LAKE", "province": "ON", "lat": 44.733333333333334, "lon": -76.6}, {"id": "6101935", "name": "CUMBERLAND", "province": "ON", "lat": 45.5, "lon": -75.45}, {"id": "6101943", "name": "DACRE", "province": "ON", "lat": 45.38333333333333, "lon": -76.91666666666667}, {"id": "6101955", "name": "DALHOUSIE L HIGH FALLS", "province": "ON", "lat": 44.96666666666667, "lon": -76.61666666666666}, {"id": "6101958", "name": "DALHOUSIE MILLS", "province": "ON", "lat": 45.31666666666667, "lon": -74.46666666666667}, {"id": "6101960", "name": "DALKEITH", "province": "ON", "lat": 45.43333333333333, "lon": -74.61666666666666}, {"id": "6101962", "name": "DALKEITH PYM", "province": "ON", "lat": 45.43333333333333, "lon": -74.58333333333333}, {"id": "6101986", "name": "DELTA", "province": "ON", "lat": 44.61666666666667, "lon": -76.13333333333334}, {"id": "6102J13", "name": "DRUMMOND CENTRE", "province": "ON", "lat": 45.032245, "lon": -76.252805}, {"id": "6102009", "name": "DES JOACHIMS", "province": "ON", "lat": 46.18333333333333, "lon": -77.7}, {"id": "6102054", "name": "DOMVILLE", "province": "ON", "lat": 44.78333333333333, "lon": -75.53333333333333}, {"id": "6102150", "name": "DUNROBIN", "province": "ON", "lat": 45.43333333333333, "lon": -76.03333333333333}, {"id": "6102153", "name": "DUNVEGAN", "province": "ON", "lat": 45.333333333333336, "lon": -74.78333333333333}, {"id": "6102250", "name": "EGANVILLE", "province": "ON", "lat": 45.55, "lon": -77.1}, {"id": "6102417", "name": "FITZROY HARBOUR", "province": "ON", "lat": 45.46666666666667, "lon": -76.21666666666667}, {"id": "6102516", "name": "FOURNIER", "province": "ON", "lat": 45.43333333333333, "lon": -74.9}, {"id": "6102531", "name": "FOYMOUNT", "province": "ON", "lat": 45.333333333333336, "lon": -77.3}, {"id": "6102662", "name": "GANANOQUE", "province": "ON", "lat": 44.31666666666667, "lon": -76.2}, {"id": "6102808", "name": "GLENBURNIE", "province": "ON", "lat": 44.333333333333336, "lon": -76.5}, {"id": "6102832", "name": "GLEN GORDON", "province": "ON", "lat": 45.166666666666664, "lon": -74.53333333333333}, {"id": "6102839", "name": "GLOUCESTER DESJARDINS", "province": "ON", "lat": 45.333333333333336, "lon": -75.5}, {"id": "6102840", "name": "GLOUCESTER KETTLES", "province": "ON", "lat": 45.35, "lon": -75.55}, {"id": "6102841", "name": "GLOUCESTER RCN", "province": "ON", "lat": 45.3, "lon": -75.51666666666667}, {"id": "6102842", "name": "GLOUCESTER TINKER", "province": "ON", "lat": 45.35, "lon": -75.46666666666667}, {"id": "6102857", "name": "GODFREY", "province": "ON", "lat": 44.56666666666667, "lon": -76.63333333333334}, {"id": "6103006", "name": "GREENFIELD", "province": "ON", "lat": 45.35, "lon": -74.66666666666667}, {"id": "6103366", "name": "HARROWSMITH BRACKEN", "province": "ON", "lat": 44.38333333333333, "lon": -76.7}, {"id": "6103367", "name": "HARTINGTON IHD", "province": "ON", "lat": 44.428063333333334, "lon": -76.69030166666667}, {"id": "6103390", "name": "HAWKESBURY", "province": "ON", "lat": 45.61666666666667, "lon": -74.63333333333334}, {"id": "6103470", "name": "HINCHINBROOKE", "province": "ON", "lat": 44.583333333333336, "lon": -76.68333333333334}, {"id": "6104JK5", "name": "KILLALOE STATION", "province": "ON", "lat": 45.483333333333334, "lon": -77.5}, {"id": "6104025", "name": "KEMPTVILLE", "province": "ON", "lat": 45.0, "lon": -75.63333333333334}, {"id": "61041BE", "name": "KILLALOE O'GRADY", "province": "ON", "lat": 45.5, "lon": -77.48333333333333}, {"id": "6104125", "name": "KILLALOE", "province": "ON", "lat": 45.56666666666667, "lon": -77.41666666666667}, {"id": "6104145", "name": "KINGSTON", "province": "ON", "lat": 44.25, "lon": -76.5}, {"id": "6104146", "name": "KINGSTON A", "province": "ON", "lat": 44.21863666666667, "lon": -76.59666888888889}, {"id": "6104147", "name": "KINGSTON BEVERLEY ST", "province": "ON", "lat": 44.21666666666667, "lon": -76.5}, {"id": "6104153", "name": "KINGSTON MARINE", "province": "ON", "lat": 44.233333333333334, "lon": -76.45}, {"id": "6104160", "name": "KINGSTON N & C GAS", "province": "ON", "lat": 44.233333333333334, "lon": -76.56666666666666}, {"id": "6104165", "name": "KINGSTON ONT HYDRO", "province": "ON", "lat": 44.266666666666666, "lon": -76.5}, {"id": "6104175", "name": "KINGSTON PUMPING STATION", "province": "ON", "lat": 44.243903333333336, "lon": -76.48056666666666}, {"id": "6104185", "name": "KINGSTON QUEENS U", "province": "ON", "lat": 44.25, "lon": -76.5}, {"id": "6104293", "name": "LAGGAN", "province": "ON", "lat": 45.38333333333333, "lon": -74.71666666666667}, {"id": "6104340", "name": "LANCASTER", "province": "ON", "lat": 45.15, "lon": -74.46666666666667}, {"id": "6104347", "name": "LANSDOWNE", "province": "ON", "lat": 44.5, "lon": -76.03333333333333}, {"id": "6104348", "name": "LANSDOWNE", "province": "ON", "lat": 44.4, "lon": -76.0}, {"id": "6104400", "name": "LEONARD", "province": "ON", "lat": 45.38333333333333, "lon": -75.31666666666666}, {"id": "6104723", "name": "LYN", "province": "ON", "lat": 44.583333333333336, "lon": -75.78333333333333}, {"id": "6104725", "name": "LYNDHURST SHAWMERE", "province": "ON", "lat": 44.516666666666666, "lon": -76.08333333333333}, {"id": "6104733", "name": "MACCUE", "province": "ON", "lat": 44.88333333333333, "lon": -76.16666666666667}, {"id": "6104840", "name": "MAITLAND", "province": "ON", "lat": 44.63333333333333, "lon": -75.63333333333334}, {"id": "6104880", "name": "MALLORYTOWN GRAHAM LAKE", "province": "ON", "lat": 44.56666666666667, "lon": -75.88333333333334}, {"id": "6104882", "name": "MALLORYTOWN LANDING", "province": "ON", "lat": 44.45, "lon": -75.86666666666666}, {"id": "6104931", "name": "MANOTICK", "province": "ON", "lat": 45.233333333333334, "lon": -75.68333333333334}, {"id": "6104932", "name": "MANOTICK", "province": "ON", "lat": 45.233333333333334, "lon": -75.7}, {"id": "6105010", "name": "MATAWATCHAN", "province": "ON", "lat": 45.13333333333333, "lon": -77.11666666666666}, {"id": "6105061", "name": "MERIVALE CDA", "province": "ON", "lat": 45.3, "lon": -75.73333333333333}, {"id": "6105066", "name": "METCALFE OSGOODE", "province": "ON", "lat": 45.233333333333334, "lon": -75.46666666666667}, {"id": "6105262", "name": "MONTAGUE", "province": "ON", "lat": 44.93333333333333, "lon": -75.95}, {"id": "6105395", "name": "MOOSE CREEK", "province": "ON", "lat": 45.25, "lon": -75.03333333333333}, {"id": "6105460", "name": "MORRISBURG", "province": "ON", "lat": 44.92361833333333, "lon": -75.18834333333334}, {"id": "6105512", "name": "MOUNT ST PATRICK", "province": "ON", "lat": 45.333333333333336, "lon": -76.88333333333334}, {"id": "6105576", "name": "NAVAN", "province": "ON", "lat": 45.43333333333333, "lon": -75.51666666666667}, {"id": "6105678", "name": "NORTH AUGUSTA", "province": "ON", "lat": 44.75, "lon": -75.78333333333333}, {"id": "6105679", "name": "NORTH AUGUSTA MAHONEY", "province": "ON", "lat": 44.733333333333334, "lon": -75.73333333333333}, {"id": "6105709", "name": "NORTH GOWER", "province": "ON", "lat": 45.13333333333333, "lon": -75.71666666666667}, {"id": "6105832", "name": "ORLEANS VEH PRVG GND", "province": "ON", "lat": 45.45, "lon": -75.56666666666666}, {"id": "6105887", "name": "OTTAWA", "province": "ON", "lat": 45.4, "lon": -75.71666666666667}, {"id": "6105910", "name": "OTTAWA ALBION RD", "province": "ON", "lat": 45.333333333333336, "lon": -75.63333333333334}, {"id": "6105913", "name": "OTTAWA ALTA VISTA", "province": "ON", "lat": 45.38333333333333, "lon": -75.75}, {"id": "6105938", "name": "OTTAWA BECKWITH RD", "province": "ON", "lat": 45.4, "lon": -75.66666666666667}, {"id": "6105950", "name": "OTTAWA BILLINGS BRIDGE", "province": "ON", "lat": 45.35, "lon": -75.65}, {"id": "6105960", "name": "OTTAWA BRITANNIA", "province": "ON", "lat": 45.36666666666667, "lon": -75.8}, {"id": "6105976", "name": "OTTAWA CDA", "province": "ON", "lat": 45.38333333333333, "lon": -75.71666666666667}, {"id": "6105980", "name": "OTTAWA CITY HALL", "province": "ON", "lat": 45.43333333333333, "lon": -75.7}, {"id": "6105993", "name": "OTTAWA HAZELDEAN", "province": "ON", "lat": 45.31666666666667, "lon": -75.9}, {"id": "6105995", "name": "OTTAWA HOGS BACK", "province": "ON", "lat": 45.36666666666667, "lon": -75.68333333333334}, {"id": "6106000", "name": "OTTAWA MACDONALD-CARTIER INT'L A", "province": "ON", "lat": 45.3225, "lon": -75.66916666666667}, {"id": "6106003", "name": "OTTAWA KANATA", "province": "ON", "lat": 45.333333333333336, "lon": -75.91666666666667}, {"id": "6106014", "name": "OTTAWA LA SALLE ACAD", "province": "ON", "lat": 45.43333333333333, "lon": -75.7}, {"id": "6106052", "name": "OTTAWA LEMIEUX ISLAND", "province": "ON", "lat": 45.416666666666664, "lon": -75.73333333333333}, {"id": "6106080", "name": "OTTAWA NEPEAN", "province": "ON", "lat": 45.38333333333333, "lon": -75.75}, {"id": "6106090", "name": "OTTAWA NRC", "province": "ON", "lat": 45.45, "lon": -75.61666666666666}, {"id": "6106098", "name": "OTTAWA RIDEAU WARD", "province": "ON", "lat": 45.4, "lon": -75.63333333333334}, {"id": "6106100", "name": "OTTAWA ROCKCLIFFE A", "province": "ON", "lat": 45.45, "lon": -75.63333333333334}, {"id": "6106102", "name": "OTTAWA SOUTH MARCH", "province": "ON", "lat": 45.35, "lon": -75.93333333333334}, {"id": "6106105", "name": "OTTAWA U OF O", "province": "ON", "lat": 45.416666666666664, "lon": -75.68333333333334}, {"id": "6106123", "name": "OUTLET", "province": "ON", "lat": 44.483333333333334, "lon": -76.05}, {"id": "6106362", "name": "PEMBROKE EDDY MATCH", "province": "ON", "lat": 45.833333333333336, "lon": -77.15}, {"id": "6106365", "name": "PEMBROKE FORESTRY STN", "province": "ON", "lat": 45.8, "lon": -77.18333333333334}, {"id": "6106378", "name": "PERCH LAKE MAIN IHD", "province": "ON", "lat": 46.06666666666667, "lon": -77.63333333333334}, {"id": "6106385", "name": "PERTH ONTARIO HYDRO", "province": "ON", "lat": 44.916666666666664, "lon": -76.26666666666667}, {"id": "6106398", "name": "PETAWAWA A", "province": "ON", "lat": 45.95, "lon": -77.31666666666666}, {"id": "6106400", "name": "PETAWAWA NAT FORESTRY", "province": "ON", "lat": 45.983333333333334, "lon": -77.43333333333334}, {"id": "6106660", "name": "PORT ELMSLEY", "province": "ON", "lat": 44.88333333333333, "lon": -76.13333333333334}, {"id": "6106677", "name": "PORTLAND", "province": "ON", "lat": 44.7, "lon": -76.2}, {"id": "6106779", "name": "PURDY", "province": "ON", "lat": 45.31666666666667, "lon": -77.71666666666667}, {"id": "6106874", "name": "RAMSAYVILLE CRF", "province": "ON", "lat": 45.416666666666664, "lon": -75.55}, {"id": "61070AA", "name": "RICHMOND", "province": "ON", "lat": 45.15, "lon": -75.9}, {"id": "6107002", "name": "RENFREW", "province": "ON", "lat": 45.483333333333334, "lon": -76.7}, {"id": "6107003", "name": "RENFREW", "province": "ON", "lat": 45.43333333333333, "lon": -76.65}, {"id": "6107004", "name": "RENFREW SAND POINT", "province": "ON", "lat": 45.483333333333334, "lon": -76.43333333333334}, {"id": "6107010", "name": "RICHMOND", "province": "ON", "lat": 45.166666666666664, "lon": -75.78333333333333}, {"id": "6107011", "name": "RICHMOND", "province": "ON", "lat": 45.18333333333333, "lon": -75.85}, {"id": "6107017", "name": "RIDEAU CANAL BOBS LAKE", "province": "ON", "lat": 44.733333333333334, "lon": -76.6}, {"id": "6107031", "name": "RIDEAU C BURRITS RAPIDS", "province": "ON", "lat": 44.983333333333334, "lon": -75.8}, {"id": "6107045", "name": "RIDEAU CANAL JONES FALLS", "province": "ON", "lat": 44.55, "lon": -76.23333333333333}, {"id": "6107059", "name": "RIDEAU CANAL KILMARNOCK", "province": "ON", "lat": 44.88333333333333, "lon": -75.93333333333334}, {"id": "6107073", "name": "RIDEAU CANAL LONG ISLAND", "province": "ON", "lat": 45.25, "lon": -75.7}, {"id": "6107087", "name": "RIDEAU CANAL NARROWS", "province": "ON", "lat": 44.7, "lon": -76.3}, {"id": "6107096", "name": "RIDEAU CANAL PERTH", "province": "ON", "lat": 44.9, "lon": -76.25}, {"id": "6107105", "name": "RIDEAU CANAL UPP BREWERS", "province": "ON", "lat": 44.416666666666664, "lon": -76.31666666666666}, {"id": "6107119", "name": "RIDEAU CANAL WOLFE LAKE", "province": "ON", "lat": 44.6, "lon": -76.4}, {"id": "6107133", "name": "RIDEAU FERRY", "province": "ON", "lat": 44.85, "lon": -76.15}, {"id": "6107182", "name": "ROLPHTON", "province": "ON", "lat": 46.18333333333333, "lon": -77.65}, {"id": "6107184", "name": "ROLPHTON NPD", "province": "ON", "lat": 46.18333333333333, "lon": -77.66666666666667}, {"id": "6107247", "name": "RUSSELL", "province": "ON", "lat": 45.26278, "lon": -75.35945333333333}, {"id": "6107276", "name": "ST. ALBERT", "province": "ON", "lat": 45.28722333333333, "lon": -75.06361833333334}, {"id": "6107310", "name": "ST ELMO", "province": "ON", "lat": 45.31666666666667, "lon": -74.85}, {"id": "6107352", "name": "ST RAPHAEL", "province": "ON", "lat": 45.21666666666667, "lon": -74.58333333333333}, {"id": "6107533", "name": "SARSFIELD", "province": "ON", "lat": 45.43333333333333, "lon": -75.35}, {"id": "6107699", "name": "SHIRLEY BAY", "province": "ON", "lat": 45.35, "lon": -75.88333333333334}, {"id": "6107834", "name": "SMITHS FALLS", "province": "ON", "lat": 44.916666666666664, "lon": -76.05}, {"id": "6107835", "name": "SMITHS FALLS WPCP", "province": "ON", "lat": 44.9, "lon": -76.0}, {"id": "6107836", "name": "SMITHS FALLS TS", "province": "ON", "lat": 44.88333333333333, "lon": -76.0}, {"id": "6107955", "name": "SOUTH MOUNTAIN", "province": "ON", "lat": 44.96666666666667, "lon": -75.48333333333333}, {"id": "6107971", "name": "SPENCERVILLE", "province": "ON", "lat": 44.85, "lon": -75.55}, {"id": "6108027", "name": "STEWARTVILLE", "province": "ON", "lat": 45.4, "lon": -76.5}, {"id": "6108060", "name": "STONECLIFFE", "province": "ON", "lat": 46.15, "lon": -78.1}, {"id": "6108195", "name": "SYDENHAM", "province": "ON", "lat": 44.4, "lon": -76.58333333333333}, {"id": "6109132", "name": "VANKLEEK HILL", "province": "ON", "lat": 45.516666666666666, "lon": -74.65}, {"id": "6109458", "name": "WESTPORT", "province": "ON", "lat": 44.68333333333333, "lon": -76.41666666666667}, {"id": "6109558", "name": "WOLFE ISLAND", "province": "ON", "lat": 44.15, "lon": -76.53333333333333}, {"id": "6109590", "name": "WOODLAWN", "province": "ON", "lat": 45.5, "lon": -76.1}, {"id": "611C001", "name": "GRAVENHURST BOOTH", "province": "ON", "lat": 44.916666666666664, "lon": -79.4}, {"id": "611DR50", "name": "MAPLE GROVE", "province": "ON", "lat": 44.4, "lon": -80.36666666666666}, {"id": "611HBEC", "name": "THORNBURY SLAMA", "province": "ON", "lat": 44.57362, "lon": -80.48529666666667}, {"id": "611KBE0", "name": "EGBERT CARE", "province": "ON", "lat": 44.233333333333334, "lon": -79.78333333333333}, {"id": "611K661", "name": "GAMEBRIDGE", "province": "ON", "lat": 44.516666666666666, "lon": -79.1}, {"id": "6110HK7", "name": "BORDEN STP", "province": "ON", "lat": 44.3, "lon": -79.9}, {"id": "6110210", "name": "ALLAN PARK", "province": "ON", "lat": 44.166666666666664, "lon": -80.93333333333334}, {"id": "6110216", "name": "ALLISTON", "province": "ON", "lat": 44.15, "lon": -79.85}, {"id": "6110218", "name": "ALLISTON NELSON", "province": "ON", "lat": 44.15139666666666, "lon": -79.87224666666667}]